city,lat,lng,population,country,iso3
Tokyo,35.6897,139.6922,37732000.0,Japan,JPN
Jakarta,-6.175,106.8275,33756000.0,Indonesia,IDN
Delhi,28.61,77.23,32226000.0,India,IND
Guangzhou,23.13,113.26,26940000.0,China,CHN
Mumbai,19.0761,72.8775,24973000.0,India,IND
Manila,14.5958,120.9772,24922000.0,Philippines,PHL
Shanghai,31.2286,121.4747,24073000.0,China,CHN
São Paulo,-23.55,-46.6333,23086000.0,Brazil,BRA
Seoul,37.56,126.99,23016000.0,"Korea, South",KOR
Mexico City,19.4333,-99.1333,21804000.0,Mexico,MEX
Cairo,30.0444,31.2358,20296000.0,Egypt,EGY
New York,40.6943,-73.9249,18908608.0,United States,USA
Dhaka,23.7639,90.3889,18627000.0,Bangladesh,BGD
Beijing,39.9067,116.3975,18522000.0,China,CHN
Kolkāta,22.5675,88.37,18502000.0,India,IND
Bangkok,13.7525,100.4942,18007000.0,Thailand,THA
Shenzhen,22.5415,114.0596,17619000.0,China,CHN
Moscow,55.7558,37.6172,17332000.0,Russia,RUS
Buenos Aires,-34.6033,-58.3817,16710000.0,Argentina,ARG
Lagos,6.455,3.3841,16637000.0,Nigeria,NGA
Istanbul,41.0136,28.955,16079000.0,Turkey,TUR
Karachi,24.86,67.01,15738000.0,Pakistan,PAK
Bangalore,12.9789,77.5917,15386000.0,India,IND
Ho Chi Minh City,10.7756,106.7019,15136000.0,Vietnam,VNM
Ōsaka,34.6939,135.5022,15126000.0,Japan,JPN
Chengdu,30.66,104.0633,14645000.0,China,CHN
Tehran,35.6892,51.3889,14148000.0,Iran,IRN
Kinshasa,-4.3219,15.3119,12836000.0,Congo (Kinshasa),COD
Rio de Janeiro,-22.9111,-43.2056,12592000.0,Brazil,BRA
Chennai,13.0825,80.275,12395000.0,India,IND
Xi’an,34.2611,108.9422,12328000.0,China,CHN
Lahore,31.5497,74.3436,12306000.0,Pakistan,PAK
Chongqing,29.5637,106.5504,12135000.0,China,CHN
Los Angeles,34.1141,-118.4068,11922389.0,United States,USA
Baoding,38.874,115.464,11544036.0,China,CHN
London,51.5072,-0.1275,11262000.0,United Kingdom,GBR
Paris,48.8567,2.3522,11060000.0,France,FRA
Linyi,35.1038,118.3564,11018365.0,China,CHN
Dongguan,23.021,113.752,10646000.0,China,CHN
Hyderābād,17.3617,78.4747,10494000.0,India,IND
Tianjin,39.1336,117.2054,10368000.0,China,CHN
Lima,-12.06,-77.0375,10320000.0,Peru,PER
Wuhan,30.5934,114.3046,10251000.0,China,CHN
Nanyang,32.9987,112.5292,9713112.0,China,CHN
Hangzhou,30.267,120.153,9523000.0,China,CHN
Foshan,23.0214,113.1216,9498863.0,China,CHN
Nagoya,35.1833,136.9,9197000.0,Japan,JPN
Tongshan,34.204,117.284,9083790.0,China,CHN
Luanda,-8.8383,13.2344,9051000.0,Angola,AGO
Zhoukou,33.625,114.6418,9026015.0,China,CHN
Ganzhou,25.831,114.933,8970014.0,China,CHN
Kuala Lumpur,3.1478,101.6953,8911000.0,Malaysia,MYS
Heze,35.2343,115.4796,8795939.0,China,CHN
Quanzhou,24.8744,118.6757,8782285.0,China,CHN
Johannesburg,-26.2044,28.0456,8500000.0,South Africa,ZAF
Chicago,41.8375,-87.6866,8497759.0,United States,USA
Nanjing,32.0608,118.7789,8422000.0,China,CHN
Jining,35.4151,116.5871,8357897.0,China,CHN
Hanoi,21.0,105.85,8246600.0,Vietnam,VNM
Pune,18.5203,73.8567,8231000.0,India,IND
Fuyang,32.89,115.814,8200264.0,China,CHN
Ahmedabad,23.0225,72.5714,8009000.0,India,IND
Bogotá,4.7111,-74.0722,7968095.0,Colombia,COL
Shenyang,41.8025,123.4281,7964000.0,China,CHN
Dar es Salaam,-6.8161,39.2803,7962000.0,Tanzania,TZA
Khartoum,15.6,32.5,7869000.0,Sudan,SDN
Shangqiu,34.415,115.656,7816831.0,China,CHN
Hong Kong,22.3,114.2,7450000.0,Hong Kong,HKG
Cangzhou,38.3047,116.8387,7300783.0,China,CHN
Riyadh,24.6333,46.7167,7237000.0,Saudi Arabia,SAU
Santiago,-33.4372,-70.6506,7171000.0,Chile,CHL
Xingtai,37.0717,114.5048,7111106.0,China,CHN
Zhumadian,33.014,114.022,7008427.0,China,CHN
Chattogram,22.335,91.8325,7000000.0,Bangladesh,BGD
Surabaya,-7.2458,112.7378,6998000.0,Indonesia,IDN
Zhanjiang,21.2701,110.3575,6981236.0,China,CHN
Bijie,27.284,105.292,6899636.0,China,CHN
Yancheng,33.3482,120.1626,6709629.0,China,CHN
Hengyang,26.894,112.572,6645243.0,China,CHN
Zunyi,27.722,107.031,6606675.0,China,CHN
Shaoyang,27.2395,111.4679,6563520.0,China,CHN
Sūrat,21.1702,72.8311,6538000.0,India,IND
Shangrao,28.4551,117.9431,6435300.0,China,CHN
Xinyang,32.149,114.091,6234401.0,China,CHN
Madrid,40.4169,-3.7033,6211000.0,Spain,ESP
Baghdad,33.3153,44.3661,6183000.0,Iraq,IRQ
Maoming,21.6627,110.9255,6174050.0,China,CHN
Jieyang,23.551,116.3727,6089400.0,China,CHN
Miami,25.784,-80.2101,6080145.0,United States,USA
Singapore,1.3,103.8,5983000.0,Singapore,SGP
Houston,29.786,-95.3885,5970127.0,United States,USA
Liaocheng,36.4559,115.9852,5952128.0,China,CHN
Huanggang,30.4537,114.8724,5882719.0,China,CHN
Dalian,38.9,121.6,5871474.0,China,CHN
Dallas,32.7935,-96.7667,5830932.0,United States,USA
Qingdao,36.0669,120.3827,5818255.0,China,CHN
Yulin,22.654,110.181,5796766.0,China,CHN
Douala,4.05,9.7,5768400.0,Cameroon,CMR
Qujing,25.491,103.796,5765775.0,China,CHN
Nangandao,35.3036,113.9268,5708191.0,China,CHN
Philadelphia,40.0077,-75.1339,5683533.0,United States,USA
Pudong,31.2347,121.5064,5681512.0,China,CHN
Toronto,43.7417,-79.3733,5647656.0,Canada,CAN
Zhengzhou,34.764,113.684,5621593.0,China,CHN
Dezhou,37.436,116.359,5611194.0,China,CHN
Nanchong,30.8372,106.1106,5607565.0,China,CHN
Jinan,36.6702,117.0207,5606374.0,China,CHN
Giza,29.987,31.2118,5598402.0,Egypt,EGY
Nairobi,-1.2864,36.8172,5545000.0,Kenya,KEN
Guadalajara,20.6767,-103.3475,5525000.0,Mexico,MEX
Ankara,39.93,32.85,5503985.0,Turkey,TUR
Tai’an,36.202,117.087,5472217.0,China,CHN
Langfang,39.5383,116.6835,5464087.0,China,CHN
Dazhou,31.2093,107.4678,5385422.0,China,CHN
Saint Petersburg,59.9375,30.3086,5384342.0,Russia,RUS
Monterrey,25.6667,-100.3,5341171.0,Mexico,MEX
Belo Horizonte,-19.9167,-43.9333,5328000.0,Brazil,BRA
Suzhou,33.6333,116.9683,5324476.0,China,CHN
Yongzhou,26.42,111.613,5289824.0,China,CHN
Changde,29.031,111.699,5279102.0,China,CHN
Xiangyang,32.01,112.122,5260951.0,China,CHN
Rangoon,16.795,96.16,5209541.0,Burma,MMR
Atlanta,33.7628,-84.422,5180179.0,United States,USA
Washington,38.9047,-77.0163,5116378.0,United States,USA
Zhaotong,27.338,103.717,5092611.0,China,CHN
Zhangzhou,24.513,117.647,5054328.0,China,CHN
Melbourne,-37.8142,144.9631,5031195.0,Australia,AUS
Yichun,27.816,114.417,5007702.0,China,CHN
Bozhou,33.8626,115.7742,4996844.0,China,CHN
Suqian,33.9331,118.2831,4986192.0,China,CHN
Abidjan,5.3167,-4.0333,4980000.0,Côte d’Ivoire,CIV
Ji’an,27.0912,114.9668,4956600.0,China,CHN
Guilin,25.275,110.296,4931137.0,China,CHN
Pingdingshan,33.735,113.2999,4904701.0,China,CHN
Berlin,52.52,13.405,4890363.0,Germany,DEU
Alexandria,31.1975,29.8925,4870000.0,Egypt,EGY
Mianyang,31.468,104.679,4868243.0,China,CHN
Sydney,-33.8678,151.21,4840600.0,Australia,AUS
Huanglongsi,34.795,114.345,4824016.0,China,CHN
Barcelona,41.3828,2.1769,4800000.0,Spain,ESP
Yuncheng,35.0267,111.007,4774508.0,China,CHN
Cape Town,-33.9253,18.4239,4770313.0,South Africa,ZAF
Changsha,28.228,112.939,4766296.0,China,CHN
Jeddah,21.5433,39.1728,4697000.0,Saudi Arabia,SAU
Weinan,34.5206,109.471,4688744.0,China,CHN
Chenzhou,25.77,113.016,4667134.0,China,CHN
Jiangmen,22.5789,113.0815,4630300.0,China,CHN
Jiujiang,29.661,115.954,4600276.0,China,CHN
Xinpu,34.5966,119.2214,4599360.0,China,CHN
Yibin,28.752,104.643,4588804.0,China,CHN
Huaihua,27.5698,110.0016,4587594.0,China,CHN
Yangzhou,32.3912,119.4363,4559797.0,China,CHN
Taizhou,32.4567,119.9229,4512762.0,China,CHN
Kunming,25.0464,102.7094,4422686.0,China,CHN
Yiyang,28.5549,112.356,4413800.0,China,CHN
Changchun,43.897,125.326,4408154.0,China,CHN
Lu’an,31.736,116.52,4393699.0,China,CHN
Jiangguanchi,34.0244,113.8201,4379998.0,China,CHN
Meizhou,24.289,116.122,4378800.0,China,CHN
Ürümqi,43.8225,87.6125,4335017.0,China,CHN
Suzhou,31.3,120.6194,4330000.0,China,CHN
Boston,42.3188,-71.0852,4328315.0,United States,USA
İzmir,38.42,27.14,4320519.0,Turkey,TUR
Guigang,23.112,109.599,4316262.0,China,CHN
Shantou,23.354,116.682,4312192.0,China,CHN
Kabul,34.5253,69.1783,4273156.0,Afghanistan,AFG
Xiaoganzhan,30.918,113.957,4270371.0,China,CHN
Bamako,12.6392,-8.0028,4227569.0,Mali,MLI
Luzhou,28.871,105.442,4218427.0,China,CHN
Hefei,31.8206,117.2273,4216940.0,China,CHN
Hengshui,37.739,115.669,4212933.0,China,CHN
Fortaleza,-3.7275,-38.5275,4167996.0,Brazil,BRA
Anqing,30.5318,117.1153,4165284.0,China,CHN
Liuzhou,24.3264,109.4281,4157934.0,China,CHN
Zhangjiakou,40.769,114.886,4118908.0,China,CHN
Zhaoqing,23.05,112.4667,4113594.0,China,CHN
Shijiazhuang,38.0425,114.51,4098243.0,China,CHN
Ningbo,29.8603,121.6245,4087523.0,China,CHN
Qiqihar,47.3549,123.9182,4067489.0,China,CHN
Phoenix,33.5722,-112.0892,4064275.0,United States,USA
Fuzhou,27.949,116.358,4047200.0,China,CHN
Chifeng,42.257,118.888,4035967.0,China,CHN
Xiaoxita,30.692,111.287,4017607.0,China,CHN
Amman,31.9497,35.9328,4007526.0,Jordan,JOR
Chuzhou,32.256,118.333,3987054.0,China,CHN
Linfen,36.088,111.519,3976481.0,China,CHN
Qingyuan,23.682,113.056,3969473.0,China,CHN
Xianyang,34.3299,108.7088,3959842.0,China,CHN
Loudi,27.6998,111.9944,3931800.0,China,CHN
Binzhou,37.383,117.971,3928568.0,China,CHN
Zhuzhou,27.829,113.133,3902738.0,China,CHN
Taiyuan,37.8704,112.5497,3875053.0,China,CHN
Nanning,22.8167,108.3275,3837978.0,China,CHN
Harbin,45.7576,126.6409,3830000.0,China,CHN
Abuja,9.0667,7.4833,3770000.0,Nigeria,NGA
Yokohama,35.4442,139.6381,3757630.0,Japan,JPN
Suihua,46.654,126.969,3756167.0,China,CHN
Zaozhuang,34.8109,117.3238,3729140.0,China,CHN
Detroit,42.3834,-83.1024,3725908.0,United States,USA
Xiamen,24.4796,118.0889,3707090.0,China,CHN
Neijiang,29.5802,105.058,3702847.0,China,CHN
Montréal,45.5089,-73.5617,3675219.0,Canada,CAN
Fuzhou,26.0743,119.2964,3671192.0,China,CHN
Baicheng,23.903,106.619,3669400.0,China,CHN
Wuhu,31.3526,118.4331,3644420.0,China,CHN
Yulinshi,38.2858,109.7341,3634750.0,China,CHN
Medan,3.5894,98.6739,3632000.0,Indonesia,IDN
Wenzhou,27.9938,120.6993,3604446.0,China,CHN
Changzhou,31.811,119.974,3601079.0,China,CHN
Puyang,35.7627,115.0292,3598740.0,China,CHN
Jiaozuo,35.2157,113.2419,3590700.0,China,CHN
Nanchang,28.683,115.858,3576547.0,China,CHN
Seattle,47.6211,-122.3244,3561397.0,United States,USA
Ibadan,7.3964,3.9167,3552000.0,Nigeria,NGA
Casablanca,33.5333,-7.5833,3499000.0,Morocco,MAR
Kumasi,6.7,-1.625,3490030.0,Ghana,GHA
Deyang,31.127,104.398,3456161.0,China,CHN
Busan,35.18,129.075,3453198.0,"Korea, South",KOR
Hohhot,40.842,111.749,3446100.0,China,CHN
Hechi,24.693,108.085,3417945.0,China,CHN
Algiers,36.7539,3.0589,3415811.0,Algeria,DZA
Tangshan,39.6294,118.1739,3399231.0,China,CHN
Shiyan,32.629,110.7987,3398000.0,China,CHN
Lucknow,26.85,80.95,3382000.0,India,IND
Mashhad,36.3264,59.5433,3372090.0,Iran,IRN
San Francisco,37.7558,-122.4449,3364979.0,United States,USA
Boankra,6.6944,-1.4028,3348000.0,Ghana,GHA
Dubai,25.2631,55.2972,3331420.0,United Arab Emirates,ARE
Anshan,41.108,122.994,3325372.0,China,CHN
Baojishi,34.363,107.238,3321853.0,China,CHN
Qinzhou,21.981,108.654,3304400.0,China,CHN
Guiyang,26.647,106.63,3299724.0,China,CHN
Bengbu,32.917,117.389,3296408.0,China,CHN
Bazhou,31.868,106.748,3283148.0,China,CHN
Suining,30.533,105.593,3252619.0,China,CHN
Wuxi,31.491,120.312,3245179.0,China,CHN
Kotla Qasim Khan,32.5833,73.75,3219375.0,Pakistan,PAK
Hanzhong,33.0664,107.0232,3211462.0,China,CHN
Putian,25.4526,119.0078,3210714.0,China,CHN
Zhenjiang,32.188,119.424,3210418.0,China,CHN
Guang’an,30.4564,106.6326,3205476.0,China,CHN
Faisalabad,31.4167,73.0911,3203846.0,Pakistan,PAK
Changzhi,36.195,113.117,3180884.0,China,CHN
Tongren,27.7316,109.1895,3168800.0,China,CHN
Leshan,29.552,103.766,3160168.0,China,CHN
Santa Cruz de la Sierra,-17.7892,-63.1975,3151676.0,Bolivia,BOL
Qinhuangdao,39.8882,119.5202,3146300.0,China,CHN
Jaipur,26.9,75.8,3073350.0,India,IND
Xinzhou,38.416,112.734,3067501.0,China,CHN
Lanzhou,36.0606,103.8268,3067141.0,China,CHN
Wuzhou,23.4767,111.279,3061100.0,China,CHN
Athens,37.9842,23.7281,3059764.0,Greece,GRC
San Diego,32.8313,-117.1222,3046560.0,United States,USA
Addis Ababa,9.03,38.74,3041002.0,Ethiopia,ETH
Taichung,24.1439,120.6794,3033885.0,Taiwan,TWN
Huainan,32.6314,117.0194,3033528.0,China,CHN
Guatemala City,14.6133,-90.5353,3014000.0,Guatemala,GTM
Kuwait City,29.3697,47.9783,3000000.0,Kuwait,KWT
Budapest,47.4925,19.0514,2997958.0,Hungary,HUN
Qincheng,34.5809,105.7311,2984659.0,China,CHN
Rizhao,35.417,119.527,2968365.0,China,CHN
Quezon City,14.65,121.0475,2960048.0,Philippines,PHL
Sanaa,15.3483,44.2064,2957000.0,Yemen,YEM
Tashkent,41.3111,69.2797,2956384.0,Uzbekistan,UZB
Kyiv,50.45,30.5233,2952301.0,Ukraine,UKR
Meishan,30.0771,103.8484,2950545.0,China,CHN
Incheon,37.4833,126.6333,2936117.0,"Korea, South",KOR
Birmingham,52.48,-1.9025,2919600.0,United Kingdom,GBR
Ningde,26.6662,119.5477,2910000.0,China,CHN
Zhongshan,22.517,113.3925,2909633.0,China,CHN
Weihai,37.5133,122.1205,2906548.0,China,CHN
Bursa,40.1833,29.05,2901396.0,Turkey,TUR
Minneapolis,44.9635,-93.2678,2892569.0,United States,USA
Mbuji-Mayi,-6.15,23.6,2892000.0,Congo (Kinshasa),COD
Haikou,20.0186,110.3488,2873358.0,China,CHN
Tongliao,43.654,122.243,2873168.0,China,CHN
Chaoyang,41.571,120.453,2872857.0,China,CHN
La Paz,-16.4958,-68.1333,2867504.0,Bolivia,BOL
Pyongyang,39.0167,125.7475,2863000.0,"Korea, North",PRK
Tampa,27.9945,-82.4447,2861173.0,United States,USA
Shaoguan,24.811,113.597,2855131.0,China,CHN
Heyuan,23.7443,114.7002,2837686.0,China,CHN
Brasília,-15.7939,-47.8828,2817068.0,Brazil,BRA
Omdurman,15.65,32.4833,2805396.0,Sudan,SDN
Malang,-7.98,112.62,2795209.0,Indonesia,IDN
Stuttgart,48.7775,9.18,2787724.0,Germany,DEU
Daqing,46.589,125.104,2781562.0,China,CHN
Rome,41.8933,12.4828,2748109.0,Italy,ITA
Brooklyn,40.6501,-73.9496,2736074.0,United States,USA
Kaohsiung,22.615,120.2975,2733964.0,Taiwan,TWN
Xiangtan,27.8313,112.9454,2726181.0,China,CHN
Longyan,25.076,117.017,2723637.0,China,CHN
Baotou,40.6213,109.9532,2709378.0,China,CHN
Handan,36.601,114.487,2708015.0,China,CHN
Jinzhou,41.129,121.148,2703853.0,China,CHN
Kanpur,26.4499,80.3319,2701324.0,India,IND
Denver,39.762,-104.8758,2687458.0,United States,USA
Nanping,26.6418,118.1774,2680645.0,China,CHN
Gāzipura,23.9889,90.375,2674697.0,Bangladesh,BGD
Shanwei,22.7872,115.3756,2672819.0,China,CHN
Chaozhou,23.658,116.622,2656600.0,China,CHN
Guayaquil,-2.19,-79.8875,2650288.0,Ecuador,ECU
Weifang,36.708,119.162,2636154.0,China,CHN
Huai’an,33.551,119.113,2632788.0,China,CHN
Zibo,36.8138,118.055,2631647.0,China,CHN
Ankang,32.6854,109.029,2629906.0,China,CHN
Mogadishu,2.0392,45.3419,2610483.0,Somalia,SOM
Munich,48.1375,11.575,2606021.0,Germany,DEU
Gulou,26.0865,119.298,2606000.0,China,CHN
Taipei,25.0375,121.5625,2603150.0,Taiwan,TWN
Bekasi,-6.2349,106.9923,2590257.0,Indonesia,IDN
Damascus,33.5131,36.2919,2584771.0,Syria,SYR
Sanming,26.2634,117.6389,2580000.0,China,CHN
Yangjiang,21.857,111.983,2555600.0,China,CHN
Jiamusi,46.8,130.319,2552097.0,China,CHN
Luohe,33.583,114.0109,2544266.0,China,CHN
Medellín,6.2308,-75.5906,2529403.0,Colombia,COL
Dingxi,35.608,104.592,2524097.0,China,CHN
Shaoxing,30.0511,120.5833,2521964.0,China,CHN
Yantai,37.4646,121.4478,2511053.0,China,CHN
Huizhou,23.112,114.416,2509243.0,China,CHN
Lishui,28.468,119.923,2507396.0,China,CHN
Xuanzhou,30.939,118.759,2500063.0,China,CHN
Khowrhesht,36.205,49.6872,2500000.0,Iran,IRN
Mirzāpur,25.146,82.569,2496970.0,India,IND
Zigong,29.339,104.779,2489256.0,China,CHN
Hamburg,53.55,10.0,2484800.0,Germany,DEU
Guangyuan,32.436,105.844,2484122.0,China,CHN
Cali,3.4206,-76.5222,2471474.0,Colombia,COL
Huangshi,30.2011,115.039,2469079.0,China,CHN
Xining,36.6224,101.7804,2467965.0,China,CHN
Lusaka,-15.4167,28.2833,2467563.0,Zambia,ZMB
Ouagadougou,12.3686,-1.5275,2453496.0,Burkina Faso,BFA
Yaoundé,3.8667,11.5167,2440462.0,Cameroon,CMR
Zhuhai,22.2716,113.5769,2439585.0,China,CHN
Huludao,40.711,120.837,2434194.0,China,CHN
Baoshan,25.112,99.161,2431211.0,China,CHN
Mecca,21.4225,39.8233,2427924.0,Saudi Arabia,SAU
Vancouver,49.25,-123.1,2426160.0,Canada,CAN
Lianshan,40.7523,120.828,2426000.0,China,CHN
Beirut,33.8983,35.5057,2421354.0,Lebanon,LBN
Salvador,-12.9747,-38.4767,2418005.0,Brazil,BRA
Bucharest,44.4325,26.1039,2412530.0,Romania,ROU
Longba,33.3702,104.9603,2407272.0,China,CHN
Nāgpur,21.1497,79.0806,2405665.0,India,IND
Queens,40.7498,-73.7976,2405464.0,United States,USA
Jilin,43.8519,126.5481,2396000.0,China,CHN
Tieling,42.2237,123.726,2388294.0,China,CHN
Accra,5.55,-0.2,2388000.0,Ghana,GHA
Yunfu,22.9152,112.0445,2383350.0,China,CHN
Bekasi Kota,-6.2333,107.0,2381053.0,Indonesia,IDN
Daegu,35.8717,128.6017,2376044.0,"Korea, South",KOR
Ghāziābād,28.67,77.42,2375820.0,India,IND
Luoyang,34.6197,112.4539,2372571.0,China,CHN
Brisbane,-27.4678,153.0281,2360241.0,Australia,AUS
Anshun,26.2531,105.9476,2353100.0,China,CHN
Riverside,33.9381,-117.3949,2332836.0,United States,USA
Yingkou,40.625,122.219,2328582.0,China,CHN
Colombo,6.9344,79.8428,2323826.0,Sri Lanka,LKA
Yanjiang,30.129,104.627,2308631.0,China,CHN
Baku,40.3953,49.8822,2300500.0,Azerbaijan,AZE
Antananarivo,-18.91,47.525,2300000.0,Madagascar,MDG
Mudanjiang,44.5514,129.6329,2290208.0,China,CHN
Fukuoka,33.59,130.4017,2286000.0,Japan,JPN
Yan’an,36.65,109.494,2282581.0,China,CHN
Jincheng,35.491,112.852,2279146.0,China,CHN
Nantong,31.981,120.894,2261382.0,China,CHN
Lincang,23.884,100.089,2257991.0,China,CHN
Yuxi,24.347,102.527,2249502.0,China,CHN
Las Vegas,36.2333,-115.2654,2248047.0,United States,USA
Caracas,10.4806,-66.9036,2245744.0,Venezuela,VEN
Tangerang,-6.1703,106.6403,2237006.0,Indonesia,IDN
Laibin,23.7501,109.2212,2233900.0,China,CHN
Konya,37.8667,32.4833,2232374.0,Turkey,TUR
Supaul,26.126,86.605,2229076.0,India,IND
Vienna,48.2083,16.3725,2223236.0,Austria,AUT
Eşfahān,32.6447,51.6675,2219343.0,Iran,IRN
Baltimore,39.3051,-76.6144,2196524.0,United States,USA
Shengli,37.434,118.6746,2193518.0,China,CHN
Dandong,40.1167,124.3833,2188436.0,China,CHN
Qinbaling,35.7278,107.64,2179716.0,China,CHN
Gaoping,30.7824,106.1281,2174000.0,China,CHN
Awka,6.2069,7.0678,2171900.0,Nigeria,NGA
Taizhou,28.6557,121.4208,2162461.0,China,CHN
Ma’anshan,31.669,118.507,2159930.0,China,CHN
Harare,-17.8292,31.0522,2150000.0,Zimbabwe,ZWE
Perth,-31.9559,115.8606,2141834.0,Australia,AUS
St. Louis,38.6359,-90.2451,2130881.0,United States,USA
Phnom Penh,11.5694,104.9211,2129371.0,Cambodia,KHM
Depok,-6.394,106.8225,2123349.0,Indonesia,IDN
Stockholm,59.3294,18.0686,2121000.0,Sweden,SWE
Puning,23.298,116.166,2118200.0,China,CHN
Huaibei,33.956,116.798,2114276.0,China,CHN
Kowloon,22.3167,114.1833,2108419.0,Hong Kong,HKG
Córdoba,-31.4167,-64.1833,2106734.0,Argentina,ARG
Haiphong,20.8651,106.6838,2103500.0,Vietnam,VNM
Zamboanga City,6.9042,122.0761,2100000.0,Philippines,PHL
Chongzuo,22.377,107.365,2099400.0,China,CHN
Rawalpindi,33.6,73.0333,2098231.0,Pakistan,PAK
Portland,45.5371,-122.65,2095808.0,United States,USA
Kano,12.0,8.5167,2095000.0,Nigeria,NGA
Yushan,31.322,120.985,2092496.0,China,CHN
Havana,23.1367,-82.3589,2089532.0,Cuba,CUB
Hezhou,24.4042,111.5672,2072600.0,China,CHN
Pingliang,35.5424,106.6649,2068033.0,China,CHN
Vadodara,22.3,73.2,2065771.0,India,IND
Manaus,-3.1189,-60.0217,2063547.0,Brazil,BRA
Qingyang,24.7816,118.5517,2061600.0,China,CHN
San Antonio,29.4632,-98.5238,2058444.0,United States,USA
Rājkot,22.3,70.7833,2043000.0,India,IND
Shangzhou,33.868,109.9244,2041231.0,China,CHN
Vishākhapatnam,17.7042,83.2978,2035922.0,India,IND
Sanmenxia,34.7732,111.2004,2034872.0,China,CHN
Baicheng,45.62,122.838,2032356.0,China,CHN
Gujranwala,32.1567,74.19,2027001.0,Pakistan,PAK
Aleppo,36.2,37.16,2003671.0,Syria,SYR
Tijuana,32.525,-117.0333,2002000.0,Mexico,MEX
Bamenda,5.9614,10.1517,2000000.0,Cameroon,CMR
Minsk,53.9,27.5667,1995471.0,Belarus,BLR
Indore,22.7167,75.8472,1994397.0,India,IND
Karaj,35.8272,50.9489,1973470.0,Iran,IRN
Kananga,-5.897,22.4488,1971704.0,Congo (Kinshasa),COD
Peshawar,34.0144,71.5675,1970042.0,Pakistan,PAK
Sapporo,43.0619,141.3544,1959313.0,Japan,JPN
Sacramento,38.5677,-121.4685,1957738.0,United States,USA
Tilburg,51.55,5.0833,1944588.0,Netherlands,NLD
Pingxiang,27.659,113.887,1933200.0,China,CHN
Ecatepec,19.6097,-99.06,1929926.0,Mexico,MEX
Almaty,43.24,76.915,1916822.0,Kazakhstan,KAZ
Austin,30.3005,-97.7522,1905945.0,United States,USA
Yinchuan,38.485,106.225,1901793.0,China,CHN
Santos,-23.9369,-46.325,1897551.0,Brazil,BRA
Blantyre,-15.7861,35.0058,1895973.0,Malawi,MWI
Thāne,19.1972,72.9722,1886941.0,India,IND
Orlando,28.4773,-81.337,1882705.0,United States,USA
Tainan,22.9833,120.1833,1874686.0,Taiwan,TWN
Xiping,40.082,113.2981,1873000.0,China,CHN
Multan,30.1978,71.4697,1871843.0,Pakistan,PAK
Santa Cruz,-17.8,-63.1833,1867673.0,Bolivia,BOL
Port Harcourt,4.8242,7.0336,1865000.0,Nigeria,NGA
Jixi,45.295,130.969,1862165.0,China,CHN
Fushun,41.881,123.957,1861372.0,China,CHN
Warsaw,52.23,21.0111,1860281.0,Poland,POL
Beihai,21.481,109.12,1853227.0,China,CHN
Fuxin,42.022,121.67,1819339.0,China,CHN
Wuwei,37.929,102.638,1815059.0,China,CHN
Siping,43.1668,124.3506,1814733.0,China,CHN
San Juan,18.3985,-66.061,1814587.0,Puerto Rico,PRI
Mersin,36.8,34.6333,1814468.0,Turkey,TUR
Bhopāl,23.2599,77.4126,1798218.0,India,IND
Mosul,36.34,43.13,1792000.0,Iraq,IRQ
Lubumbashi,-11.6647,27.4794,1786397.0,Congo (Kinshasa),COD
Davao,7.07,125.6,1776949.0,Philippines,PHL
Curitiba,-25.4297,-49.2711,1773733.0,Brazil,BRA
San Jose,37.3012,-121.848,1771413.0,United States,USA
Shuyangzha,34.1299,118.7734,1770000.0,China,CHN
Adana,37.0,35.3213,1765981.0,Turkey,TUR
Quito,-0.22,-78.5125,1763275.0,Ecuador,ECU
Pittsburgh,40.4397,-79.9763,1749091.0,United States,USA
Brazzaville,-4.2694,15.2711,1733263.0,Congo (Brazzaville),COG
Hyderabad City,25.3792,68.3683,1732693.0,Pakistan,PAK
Diyarbakır,37.91,40.24,1732396.0,Turkey,TUR
Indianapolis,39.7771,-86.1458,1729849.0,United States,USA
Pimpri-Chinchwad,18.6186,73.8037,1727692.0,India,IND
Masqaţ,23.5889,58.4083,1720000.0,Oman,OMN
Montevideo,-34.8836,-56.1819,1719453.0,Uruguay,URY
Shuozhou,39.3317,112.4329,1714857.0,China,CHN
Manhattan,40.7834,-73.9662,1694263.0,United States,USA
Cincinnati,39.1413,-84.506,1692702.0,United States,USA
Kansas City,39.1238,-94.5541,1689556.0,United States,USA
Patna,25.594,85.1376,1684222.0,India,IND
Tegucigalpa,14.1058,-87.2047,1682725.0,Honduras,HND
Kampala,0.3136,32.5811,1680600.0,Uganda,UGA
Cleveland,41.4764,-81.6805,1680247.0,United States,USA
Sanzhou,30.82,108.4,1680000.0,China,CHN
Changshu,31.656,120.753,1677050.0,China,CHN
Heihe,50.2401,127.521,1673899.0,China,CHN
Conakry,9.5092,-13.7122,1667864.0,Guinea,GIN
Ximeicun,24.9612,118.3849,1663542.0,China,CHN
Caloocan City,14.65,120.97,1661584.0,Philippines,PHL
Masvingo,-20.0744,30.8328,1638528.0,Zimbabwe,ZWE
Zhongli,24.965,121.2168,1632616.0,Taiwan,TWN
Novosibirsk,55.05,82.95,1625631.0,Russia,RUS
Bilāspur,22.09,82.15,1625502.0,India,IND
Semarang,-6.99,110.4225,1621384.0,Indonesia,IDN
Jingdezhen,29.2917,117.1986,1618979.0,China,CHN
Ludhiāna,30.91,75.85,1618879.0,India,IND
Liaoyang,41.279,123.176,1604580.0,China,CHN
Chengtangcun,35.0833,117.15,1603659.0,China,CHN
Rājshāhi,24.3667,88.6,1600000.0,Bangladesh,BGD
Balandougou,13.3558,-9.5517,1596882.0,Mali,MLI
Jiangyin,31.839,120.295,1595138.0,China,CHN
Valencia,39.47,-0.3764,1595000.0,Spain,ESP
Āgra,27.18,78.02,1585704.0,India,IND
León de los Aldama,21.1167,-101.6833,1579803.0,Mexico,MEX
Puebla,19.0333,-98.1833,1576259.0,Mexico,MEX
Columbus,39.9862,-82.9855,1572546.0,United States,USA
Yopougon,5.3167,-4.0667,1571065.0,Côte d’Ivoire,CIV
Hebi,35.748,114.297,1569208.0,China,CHN
Shīrāz,29.61,52.5425,1565572.0,Iran,IRN
Madurai,9.9252,78.1198,1561129.0,India,IND
Huzhou,30.8925,120.0875,1558826.0,China,CHN
Tabrīz,38.0814,46.3006,1558693.0,Iran,IRN
Jamshedpur,22.7925,86.1842,1558000.0,India,IND
Maracaibo,10.6333,-71.6333,1551539.0,Venezuela,VEN
Sofia,42.7,23.33,1547779.0,Bulgaria,BGR
San José,9.9325,-84.08,1543000.0,Costa Rica,CRI
Prayagraj,25.4358,81.8464,1536218.0,India,IND
Palembang,-2.9861,104.7556,1535952.0,Indonesia,IDN
Kawasaki,35.5167,139.7,1531646.0,Japan,JPN
Kōbe,34.69,135.1956,1521707.0,Japan,JPN
Jiaxing,30.747,120.756,1518654.0,China,CHN
Kigali,-1.9439,30.0594,1518632.0,Rwanda,RWA
Zhangjiajie,29.117,110.479,1517027.0,China,CHN
Baiyin,36.5451,104.1389,1512110.0,China,CHN
Guiping,23.4,110.0833,1511011.0,China,CHN
Lianjiang,21.7333,110.2833,1509400.0,China,CHN
Jianguang,28.1958,115.7833,1507402.0,China,CHN
Yucheng,30.01,103.0415,1507258.0,China,CHN
Xushan,30.1667,121.2333,1502000.0,China,CHN
Panama City,8.9833,-79.5167,1500189.0,Panama,PAN
Nneyi-Umuleri,6.3333,6.8333,1500000.0,Nigeria,NGA
Leizhou,20.9143,110.0967,1494700.0,China,CHN
Gwangju,35.1653,126.8486,1490092.0,"Korea, South",KOR
Katako-Kombe,-3.4,24.42,1488922.0,Congo (Kinshasa),COD
Recife,-8.05,-34.9,1488920.0,Brazil,BRA
Nāsik,19.9975,73.7898,1486053.0,India,IND
Valencia,10.1833,-68.0,1484430.0,Venezuela,VEN
Onitsha,6.1667,6.7833,1483000.0,Nigeria,NGA
Abu Dhabi,24.4667,54.3667,1483000.0,United Arab Emirates,ARE
Zapopan,20.7167,-103.4,1476491.0,Mexico,MEX
Daejeon,36.35,127.385,1475221.0,"Korea, South",KOR
Bronx,40.8501,-73.8662,1472654.0,United States,USA
Yekaterinburg,56.8356,60.6128,1468833.0,Russia,RUS
Huazhou,32.688,112.087,1468061.0,China,CHN
Jinhua,29.079,119.647,1463990.0,China,CHN
Kyōto,35.0117,135.7683,1463723.0,Japan,JPN
Amsterdam,52.3728,4.8936,1459402.0,Netherlands,NLD
Pizhou,34.398,117.89,1458038.0,China,CHN
Kismaayo,-0.3581,42.5453,1458000.0,Somalia,SOM
Yangshe,31.8767,120.556,1447600.0,China,CHN
Virginia Beach,36.7335,-76.0435,1443020.0,United States,USA
Dakar,14.6928,-17.4467,1438725.0,Senegal,SEN
Goiânia,-16.6667,-49.25,1437237.0,Brazil,BRA
Charlotte,35.2083,-80.8303,1427444.0,United States,USA
Rui’an,27.7833,120.625,1424667.0,China,CHN
Muscat,23.6139,58.5922,1421409.0,Oman,OMN
Kharkiv,49.9925,36.2311,1421125.0,Ukraine,UKR
Wenling,28.3667,121.3667,1416199.0,China,CHN
Gaozhou,21.9244,110.8422,1414100.0,China,CHN
Farīdābād,28.4211,77.3078,1414050.0,India,IND
Medina,24.47,39.61,1411599.0,Saudi Arabia,SAU
Khulna,22.8167,89.55,1400689.0,Bangladesh,BGD
Ulaanbaatar,47.9203,106.9172,1396288.0,Mongolia,MNG
Fuqing,25.7167,119.3833,1390487.0,China,CHN
Kayseri,38.7225,35.4875,1389680.0,Turkey,TUR
Tel Aviv-Yafo,32.08,34.78,1388400.0,Israel,ISR
Wuzhong,37.9978,106.1986,1382713.0,China,CHN
Pingdu,36.7769,119.9884,1378900.0,China,CHN
Sangereng,-6.2889,106.7181,1378466.0,Indonesia,IDN
Yangquan,37.8571,113.5804,1368502.0,China,CHN
Samsun,41.2903,36.3336,1368488.0,Turkey,TUR
Yutan,28.278,112.552,1368117.0,China,CHN
Copenhagen,55.6761,12.5683,1366301.0,Denmark,DNK
Helsinki,60.1708,24.9375,1360075.0,Finland,FIN
Prague,50.0875,14.4214,1357326.0,Czechia,CZE
Milan,45.4669,9.19,1354196.0,Italy,ITA
Auckland,-36.8406,174.74,1346091.0,New Zealand,NZL
Santiago,19.4572,-70.6889,1343423.0,Dominican Republic,DOM
Chizhou,30.6654,117.4916,1342764.0,China,CHN
Makassar,-5.1619,119.4362,1338663.0,Indonesia,IDN
Liangshi,27.26,111.7442,1335900.0,China,CHN
Porto Alegre,-30.0331,-51.23,1332570.0,Brazil,BRA
Huangshan,29.7149,118.3376,1330565.0,China,CHN
Barranquilla,10.9833,-74.8019,1326588.0,Colombia,COL
Al Başrah,30.515,47.81,1326564.0,Iraq,IRQ
Benxi,41.4868,123.685,1326018.0,China,CHN
Saitama,35.8614,139.6456,1325843.0,Japan,JPN
Guarulhos,-23.4628,-46.5328,1324781.0,Brazil,BRA
Juárez,31.745,-106.485,1321004.0,Mexico,MEX
Mandalay,21.9831,96.0844,1319452.0,Burma,MMR
Xintai,35.909,117.768,1315942.0,China,CHN
Wusong,30.9333,117.7667,1311726.0,China,CHN
Calgary,51.05,-114.0667,1306784.0,Canada,CAN
Meerut,28.98,77.71,1305429.0,India,IND
Yushu,44.826,126.55,1304436.0,China,CHN
Belém,-1.4558,-48.5039,1303389.0,Brazil,BRA
Kuaidamao,41.7283,125.9397,1302778.0,China,CHN
Huazhou,21.664,110.6396,1302100.0,China,CHN
Baishan,41.944,126.4147,1296127.0,China,CHN
Adelaide,-34.9275,138.6,1295714.0,Australia,AUS
Haicheng,40.8824,122.6852,1293877.0,China,CHN
Milwaukee,43.0642,-87.9675,1290940.0,United States,USA
Providence,41.823,-71.4187,1290271.0,United States,USA
Jacksonville,30.3322,-81.6749,1288298.0,United States,USA
Yicheng,31.36,119.815,1285785.0,China,CHN
Cacuaco,-8.8053,13.2444,1279488.0,Angola,AGO
Porto,41.1621,-8.622,1278210.0,Portugal,PRT
Rosario,-32.9575,-60.6394,1276000.0,Argentina,ARG
Canagatan,18.0,121.8,1273219.0,Philippines,PHL
Soweto,-26.2678,27.8585,1271628.0,South Africa,ZAF
Bagam,1.13,104.0531,1269820.0,Indonesia,IDN
Jabalpur,23.1667,79.9333,1267564.0,India,IND
Rucheng,32.246,120.591,1267066.0,China,CHN
Huaiyin,33.5819,119.028,1264000.0,China,CHN
Dublin,53.35,-6.2603,1263219.0,Ireland,IRL
Kazan,55.7964,49.1089,1259173.0,Russia,RUS
Dayan,26.8552,100.2259,1253878.0,China,CHN
Shaoyang,32.912,119.8526,1253548.0,China,CHN
Balıkesir,39.6333,27.8833,1250610.0,Turkey,TUR
Comayagüela,14.098,-87.21,1250000.0,Honduras,HND
Laiwu,36.1833,117.6667,1248636.0,China,CHN
Sharjah,25.3575,55.3908,1247749.0,United Arab Emirates,ARE
Jingling,30.664,113.167,1247400.0,China,CHN
Kalyān,19.2502,73.1602,1246381.0,India,IND
Nizhniy Novgorod,56.3269,44.0075,1244254.0,Russia,RUS
Yongcheng,33.9299,116.45,1240382.0,China,CHN
Sumedang,-6.84,107.9208,1240000.0,Indonesia,IDN
Cần Thơ,10.0333,105.7833,1237300.0,Vietnam,VNM
Brussels,50.8467,4.3525,1235192.0,Belgium,BEL
Suwon,37.2667,127.0167,1234300.0,"Korea, South",KOR
Yiwu,29.3069,120.0753,1234015.0,China,CHN
Beidao,34.602,105.918,1225000.0,China,CHN
Vasai-Virar,19.3607,72.7956,1221233.0,India,IND
Xiangshui,26.5964,104.8314,1221000.0,China,CHN
Dadukou,26.5824,101.7184,1214121.0,China,CHN
Campinas,-22.9058,-47.0608,1213792.0,Brazil,BRA
Lingcheng,22.7,110.35,1211637.0,China,CHN
Shuangyashan,46.6762,131.1416,1208803.0,China,CHN
Mombasa,-4.05,39.6667,1208333.0,Kenya,KEN
Najafgarh,28.6092,76.9798,1203180.0,India,IND
Xinyu,27.8186,114.9167,1202499.0,China,CHN
Qom,34.64,50.8764,1201158.0,Iran,IRN
Hargeysa,9.5631,44.0675,1200000.0,Somalia,SOM
Baidoa,3.1167,43.65,1200000.0,Somalia,SOM
Zhangye,38.9248,100.4499,1199515.0,China,CHN
Vārānasi,25.3189,83.0128,1198491.0,India,IND
Hiroshima,34.3914,132.4519,1198021.0,Japan,JPN
Chiang Mai,18.7953,98.9986,1198000.0,Thailand,THA
Belgrade,44.82,20.46,1197714.0,Serbia,SRB
Maiduguri,11.8333,13.15,1197497.0,Nigeria,NGA
Chelyabinsk,55.1547,61.3758,1196680.0,Russia,RUS
Batam Centre,1.13,104.0531,1196396.0,Indonesia,IDN
Rongcheng,26.218,104.103,1189813.0,China,CHN
Mbandaka,0.0478,18.2558,1187837.0,Congo (Kinshasa),COD
Doha,25.2867,51.5333,1186023.0,Qatar,QAT
Ahvāz,31.3047,48.6783,1184788.0,Iran,IRN
Shymkent,42.3167,69.5958,1184113.0,Kazakhstan,KAZ
Tripoli,32.8872,13.1914,1183000.0,Libya,LBY
Srīnagar,34.09,74.79,1180570.0,India,IND
Nashville,36.1715,-86.7842,1177657.0,United States,USA
Liaoyuan,42.888,125.1447,1176239.0,China,CHN
Aurangābād,19.88,75.32,1175116.0,India,IND
Cilacap,-7.7167,109.017,1174964.0,Indonesia,IDN
Salt Lake City,40.7776,-111.9311,1173879.0,United States,USA
Omsk,54.9833,73.3667,1172070.0,Russia,RUS
Pikine,14.75,-17.4,1170791.0,Senegal,SEN
Samara,53.2028,50.1408,1169719.0,Russia,RUS
Guankou,28.1637,113.6433,1168056.0,China,CHN
Bandar Lampung,-5.45,105.2667,1166761.0,Indonesia,IDN
Raleigh,35.8324,-78.6429,1163152.0,United States,USA
Lianyuan,27.692,111.664,1162928.0,China,CHN
Rongcheng,29.8402,112.9048,1162770.0,China,CHN
Dhanbād,23.7998,86.4305,1162472.0,India,IND
Nay Pyi Taw,19.7475,96.115,1160242.0,Burma,MMR
Aba,5.1167,7.3667,1160000.0,Nigeria,NGA
Kaiyuan,36.0193,113.86,1160000.0,China,CHN
Zhuji,29.7167,120.2333,1157938.0,China,CHN
Yingtan,28.2721,117.0395,1154223.0,China,CHN
Edmonton,53.5344,-113.4903,1151635.0,Canada,CAN
Leiyang,26.4223,112.8598,1151554.0,China,CHN
Ulsan,35.55,129.3167,1150116.0,"Korea, South",KOR
Yichun,47.728,128.841,1148126.0,China,CHN
Benin City,6.3333,5.6222,1147188.0,Nigeria,NGA
Bujumbura,-3.3833,29.3667,1143202.0,Burundi,BDI
Guyuan,36.01,106.257,1142142.0,China,CHN
Xiantao,30.328,113.443,1140100.0,China,CHN
Rostov,47.2225,39.71,1137704.0,Russia,RUS
Maputo,-25.9667,32.5833,1133200.0,Mozambique,MOZ
Bukavu,-2.5,28.8667,1133000.0,Congo (Kinshasa),COD
Amritsar,31.64,74.86,1132383.0,India,IND
Shagamu,6.8333,3.65,1132270.0,Nigeria,NGA
Yingchuan,34.1511,113.4733,1131896.0,China,CHN
Alīgarh,27.88,78.08,1131160.0,India,IND
Santo Domingo,18.4667,-69.95,1128678.0,Dominican Republic,DOM
Bogor,-6.5966,106.7972,1127408.0,Indonesia,IDN
Bishkek,42.8747,74.6122,1120827.0,Kyrgyzstan,KGZ
Tbilisi,41.7225,44.7925,1118035.0,Georgia,GEO
Guwāhāti,26.1722,91.7458,1116267.0,India,IND
Ufa,54.7261,55.9475,1115560.0,Russia,RUS
Fès,34.0433,-5.0033,1112072.0,Morocco,MAR
Mwanza,-2.5167,32.9,1104521.0,Tanzania,TZA
Biên Hòa,10.95,106.8167,1104000.0,Vietnam,VNM
Mexicali,32.6633,-115.4678,1102342.0,Mexico,MEX
Sevilla,37.39,-5.99,1100000.0,Spain,ESP
Ikare,7.5167,5.75,1099931.0,Nigeria,NGA
Dongtai,32.795,120.519,1098100.0,China,CHN
Dingzhou,38.516,114.99,1095986.0,China,CHN
Xibeijie,39.7334,98.4943,1095947.0,China,CHN
Tamale,9.4075,-0.8533,1095808.0,Ghana,GHA
Yuyao,30.05,121.15,1095000.0,China,CHN
Hanchuan,30.652,113.8274,1092700.0,China,CHN
Gongzhuling,43.5053,124.8224,1092692.0,China,CHN
N’Djamena,12.11,15.05,1092066.0,Chad,TCD
Ubungo,-6.7889,39.2056,1086912.0,Tanzania,TZA
Cologne,50.9364,6.9528,1084831.0,Germany,DEU
Krasnoyarsk,56.0089,92.8719,1083865.0,Russia,RUS
Zhufeng,36.0,119.4167,1081960.0,China,CHN
Ezhou,30.3914,114.8949,1079353.0,China,CHN
Astana,51.1472,71.4222,1078362.0,Kazakhstan,KAZ
Nezahualcóyotl,19.4081,-99.0186,1077208.0,Mexico,MEX
Nouakchott,18.0858,-15.9785,1077169.0,Mauritania,MRT
Hāora,22.58,88.3294,1077075.0,India,IND
Tongjin,37.2333,127.2,1076369.0,"Korea, South",KOR
Xiashi,30.5333,120.6833,1076199.0,China,CHN
Yerevan,40.1814,44.5144,1075800.0,Armenia,ARM
Rānchi,23.36,85.33,1073440.0,India,IND
Richmond,37.5295,-77.4756,1073223.0,United States,USA
Ciudad Nezahualcóyotl,19.4006,-99.0148,1072676.0,Mexico,MEX
Gwalior,26.2124,78.1772,1069276.0,India,IND
Ottawa,45.4247,-75.695,1068821.0,Canada,CAN
Zhongwei,37.5002,105.1968,1067336.0,China,CHN
Oslo,59.9133,10.7389,1064235.0,Norway,NOR
Goyang,37.65,126.8,1061929.0,"Korea, South",KOR
Sendai,38.2682,140.8694,1061177.0,Japan,JPN
Mizhou,35.99,119.3801,1060000.0,China,CHN
Xishan,27.6461,113.497,1060000.0,China,CHN
Barquisimeto,10.0636,-69.3347,1059092.0,Venezuela,VEN
Hegang,47.3501,130.298,1058665.0,China,CHN
Chandīgarh,30.75,76.78,1055450.0,India,IND
Voronezh,51.6717,39.2106,1051995.0,Russia,RUS
Managua,12.1364,-86.2514,1051236.0,Nicaragua,NIC
Haldwāni,29.22,79.52,1050000.0,India,IND
Vijayavāda,16.5193,80.6305,1048240.0,India,IND
Perm,58.0,56.3167,1048005.0,Russia,RUS
Fangchenggang,21.6867,108.3547,1046068.0,China,CHN
Jiancheng,30.3931,104.5465,1045900.0,China,CHN
Cazenga,-8.8214,13.2911,1045722.0,Angola,AGO
Kisangani,0.5167,25.2,1040000.0,Congo (Kinshasa),COD
Shouguang,36.857,118.791,1039205.0,China,CHN
Memphis,35.1087,-89.9663,1037998.0,United States,USA
São Luís,-2.5283,-44.3044,1037775.0,Brazil,BRA
Jodhpur,26.28,73.02,1033918.0,India,IND
Matola,-25.9667,32.4667,1032197.0,Mozambique,MOZ
Ogbomoso,8.1333,4.25,1032000.0,Nigeria,NGA
Sanya,18.2533,109.5036,1031396.0,China,CHN
Rangapukur,25.56,89.25,1031388.0,Bangladesh,BGD
Ashgabat,37.9375,58.38,1030063.0,Turkmenistan,TKM
Wutong,30.6333,120.5333,1029754.0,China,CHN
Linhai,28.85,121.1167,1028813.0,China,CHN
Denizli,37.7833,29.0964,1027782.0,Turkey,TUR
Niamey,13.515,2.1175,1026848.0,Niger,NGA
Shubrā al Khaymah,30.1286,31.2422,1025569.0,Egypt,EGY
Wafangdian,39.6271,121.9796,1024876.0,China,CHN
Zhongxiang,31.169,112.5853,1022514.0,China,CHN
Monrovia,6.3133,-10.8014,1021762.0,Liberia,LBR
San Cristóbal,7.7667,-72.2333,1015623.0,Venezuela,VEN
Islamabad,33.6931,73.0639,1014825.0,Pakistan,PAK
Xinyi,22.3549,110.9468,1013900.0,China,CHN
Thủ Đức,10.8266,106.7609,1013795.0,Vietnam,VNM
Morelia,19.7683,-101.1894,1011704.0,Mexico,MEX
Odesa,46.4775,30.7326,1010537.0,Ukraine,UKR
Raipur,21.2444,81.6306,1010087.0,India,IND
Changwon,35.2708,128.6631,1009998.0,"Korea, South",KOR
Arequipa,-16.4,-71.5333,1008290.0,Peru,PER
Volgograd,48.7086,44.5147,1004763.0,Russia,RUS
Zaoyang,32.129,112.772,1004741.0,China,CHN
Xingyi,25.092,104.8955,1004132.0,China,CHN
Shuizhai,33.4433,114.8994,1003698.0,China,CHN
Kota,25.18,75.83,1001694.0,India,IND
Quetta,30.1833,67.0,1001205.0,Pakistan,PAK
Quảng Hà,15.9333,108.2667,1000000.0,Vietnam,VNM
Domaa-Ahenkro,7.2833,-2.8833,1000000.0,Ghana,GHA
Bareilly,28.364,79.415,1000000.0,India,IND
Oklahoma City,35.4676,-97.5136,998806.0,United States,USA
Bordeaux,44.84,-0.58,994920.0,France,FRA
Xingcheng,24.1347,115.73,993000.0,China,CHN
Taixing,32.159,120.029,990200.0,China,CHN
Xinhualu,34.3964,113.7402,989900.0,China,CHN
Lilongwe,-13.9833,33.7833,989318.0,Malawi,MWI
Port-au-Prince,18.5333,-72.3333,987310.0,Haiti,HTI
Yingcheng,24.21,113.401,986400.0,China,CHN
Al Mijlad,11.0339,27.74,985000.0,Sudan,SDN
Luocheng,22.7689,111.5697,984100.0,China,CHN
Pekanbaru,0.5092,101.4453,983356.0,Indonesia,IDN
Natal,-6.9838,-60.2699,980588.0,Brazil,BRA
Chiba,35.6073,140.1064,975014.0,Japan,JPN
Kirkuk,35.4667,44.3167,975000.0,Iraq,IRQ
Hartford,41.7661,-72.6834,974684.0,United States,USA
Huilong,31.87,121.703,972525.0,China,CHN
Wuchuan,21.441,110.779,972400.0,China,CHN
Dnipro,48.4675,35.04,968502.0,Ukraine,UKR
Nārāyanganj,23.62,90.5,967951.0,Bangladesh,BGD
Gqeberha,-33.9581,25.6,967677.0,South Africa,ZAF
Málaga,36.7194,-4.42,967250.0,Spain,ESP
Marrakech,31.63,-8.0089,966987.0,Morocco,MAR
Cebu City,10.32,123.75,964169.0,Philippines,PHL
Louisville,38.1663,-85.6485,963812.0,United States,USA
Asmara,15.3228,38.925,963000.0,Eritrea,ERI
Coimbatore,11.0167,76.9556,959823.0,India,IND
Maceió,-9.6658,-35.735,957916.0,Brazil,BRA
Nada,19.5209,109.5808,954259.0,China,CHN
Taishan,22.2486,112.785,953900.0,China,CHN
Teresina,-5.0949,-42.8042,953172.0,Brazil,BRA
Solāpur,17.68,75.92,951558.0,India,IND
Freetown,8.4844,-13.2344,951000.0,Sierra Leone,SLE
Santo Domingo Este,18.4855,-69.8734,948855.0,Dominican Republic,DOM
Krasnodar,45.0333,38.9667,948827.0,Russia,RUS
Vientiane,17.98,102.63,948487.0,Laos,LAO
Tangier,35.7767,-5.8039,947952.0,Morocco,MAR
Anqiu,36.478,119.219,947723.0,China,CHN
Kermānshāh,34.3325,47.0933,946651.0,Iran,IRN
Feicheng,36.1861,116.7719,946627.0,China,CHN
Kibanseke Première,-4.4419,15.395,946372.0,Congo (Kinshasa),COD
Seberang Jaya,5.4083,100.3695,946092.0,Malaysia,MYS
Buffalo,42.9018,-78.8487,944589.0,United States,USA
Hubli,15.3502,75.1376,943788.0,India,IND
El Alto,-16.5047,-68.1633,943000.0,Bolivia,BOL
Çankaya,39.9244,32.8856,942553.0,Turkey,TUR
Hwasu-dong,37.1997,126.8314,941489.0,"Korea, South",KOR
Setagaya,35.6466,139.6532,940071.0,Japan,JPN
Keçiören,40.0,32.8667,939279.0,Turkey,TUR
Jerusalem,31.7789,35.2256,936425.0,Israel,ISR
Khartoum North,15.6333,32.6333,936349.0,Sudan,SDN
Meishan,34.1736,112.839,936000.0,China,CHN
Mushin,6.5333,3.35,935400.0,Nigeria,NGA
Trujillo,-8.112,-79.0288,935147.0,Peru,PER
Kitakyūshū,33.8833,130.8833,935084.0,Japan,JPN
Aguascalientes,21.876,-102.296,934424.0,Mexico,MEX
New Orleans,30.0687,-89.9288,932759.0,United States,USA
Fort Worth,32.7817,-97.3474,924663.0,United States,USA
Taihe,30.8706,105.3784,924531.0,China,CHN
Riga,56.9489,24.1064,920643.0,Latvia,LVA
Xin’an,34.286,118.355,920628.0,China,CHN
Taihecun,45.771,131.003,920471.0,China,CHN
Kashgar,39.4681,75.9938,920000.0,China,CHN
Sŏngnam,37.4333,127.15,918771.0,"Korea, South",KOR
Trichinopoly,10.7903,78.7047,916857.0,India,IND
Cartagena,10.4,-75.5,914552.0,Colombia,COL
Qingzhou,36.6853,118.4796,914047.0,China,CHN
Naples,40.8333,14.25,913462.0,Italy,ITA
Santiago del Estero,-27.7833,-64.2667,911506.0,Argentina,ARG
Naucalpan de Juárez,19.4753,-99.2378,910407.0,Mexico,MEX
Daye,30.0961,114.9804,909724.0,China,CHN
Hengzhou,22.6799,109.2614,909400.0,China,CHN
Padang,-0.95,100.3531,909040.0,Indonesia,IDN
Bridgeport,41.1918,-73.1954,908251.0,United States,USA
Owerri,5.485,7.035,908109.0,Nigeria,NGA
Zhuanghe,39.681,122.967,905852.0,China,CHN
Bobo-Dioulasso,11.1833,-4.2833,903887.0,Burkina Faso,BFA
Ad Dammām,26.4333,50.1,903312.0,Saudi Arabia,SAU
Quzhou,28.9702,118.8593,902767.0,China,CHN
Donetsk,48.0028,37.8053,901645.0,Ukraine,UKR
Ashmūn,30.2941,31.0342,901191.0,Egypt,EGY
Bunia,1.5667,30.25,900666.0,Congo (Kinshasa),COD
Jiaozhou,36.2647,120.0334,900500.0,China,CHN
Campo Grande,-20.4839,-54.615,897938.0,Brazil,BRA
Wuchang,44.924,127.158,897705.0,China,CHN
São Gonçalo,-22.8269,-43.0539,896744.0,Brazil,BRA
Bucaramanga,7.1333,-73.0,893040.0,Colombia,COL
Mérida,20.97,-89.62,892363.0,Mexico,MEX
Yangchun,22.1704,111.7916,891800.0,China,CHN
Osmangazi,40.1983,29.06,891250.0,Turkey,TUR
Esenyurt,41.0342,28.68,891120.0,Turkey,TUR
Morādābād,28.8319,78.7764,889810.0,India,IND
Bangui,4.3733,18.5628,889231.0,Central African Republic,CAF
Abeokuta,7.1608,3.3483,888924.0,Nigeria,NGA
Cancún,21.1606,-86.8475,888797.0,Mexico,MEX
Antipolo,14.5842,121.1763,887399.0,Philippines,PHL
Dengtalu,36.1386,114.1066,887000.0,China,CHN
Taguig City,14.52,121.05,886722.0,Philippines,PHL
Tabūk,28.3972,36.5789,886036.0,Saudi Arabia,SAU
Zhoushan,29.9856,122.2074,882932.0,China,CHN
Tucson,32.1541,-110.8787,878320.0,United States,USA
As Sulaymānīyah,35.5572,45.4356,878146.0,Iraq,IRQ
Chihuahua,28.6369,-106.0769,878062.0,Mexico,MEX
Klang,3.0333,101.45,878000.0,Malaysia,MYS
Tiruppūr,11.1085,77.3411,877778.0,India,IND
Gurgaon,28.456,77.029,876824.0,India,IND
Ar Ramādī,33.4258,43.2992,874543.0,Iraq,IRQ
Hai’an,32.535,120.563,874334.0,China,CHN
Laiyang,36.9758,120.7136,874127.0,China,CHN
Barinas,8.6333,-70.2,873962.0,Venezuela,VEN
Jalandhar,31.2569,75.4432,873725.0,India,IND
Marseille,43.2964,5.37,873076.0,France,FRA
Kaifeng Chengguanzhen,34.8519,114.3481,872000.0,China,CHN
Eskişehir,39.7767,30.5206,871187.0,Turkey,TUR
Gaomi,36.3833,119.75,868715.0,China,CHN
Lhasa,29.6534,91.1719,867891.0,China,CHN
Ipoh,4.5972,101.075,866772.0,Malaysia,MYS
El Paso,31.8476,-106.43,865270.0,United States,USA
Saltillo,25.4231,-100.9919,864431.0,Mexico,MEX
Dushanbe,38.5367,68.78,863400.0,Tajikistan,TJK
Ikeja,6.6,3.35,861300.0,Nigeria,NGA
El Dorado,24.808,-107.397,858638.0,Mexico,MEX
Cochabamba,-17.3883,-66.1597,856198.0,Bolivia,BOL
Portsmouth,50.8058,-1.0872,855679.0,United Kingdom,GBR
Tyumen,57.15,65.5333,855600.0,Russia,RUS
Southampton,50.9025,-1.4042,855569.0,United Kingdom,GBR
Hermosillo,29.0989,-110.9542,855563.0,Mexico,MEX
Wuxi,26.58,111.841,853197.0,China,CHN
Leping,28.978,117.152,852800.0,China,CHN
Cheongju,36.6333,127.4833,852018.0,"Korea, South",KOR
Shache,38.4261,77.25,851374.0,China,CHN
Sale,34.0333,-6.8,850403.0,Morocco,MAR
Hailun,47.4667,126.9667,850000.0,China,CHN
Macheng,31.173,115.008,849090.0,China,CHN
Akure,7.25,5.195,847903.0,Nigeria,NGA
Ilorin,8.5,4.55,847582.0,Nigeria,NGA
Erbil,36.1912,44.0092,846000.0,Iraq,IRQ
Kathmandu,27.71,85.32,845767.0,Nepal,NPL
Saratov,51.5333,46.0167,845300.0,Russia,RUS
Iguaçu,-22.74,-43.47,844583.0,Brazil,BRA
Zijinglu,34.7667,112.9667,843900.0,China,CHN
Turin,45.0792,7.6761,841600.0,Italy,ITA
Yuci,37.6823,112.7281,840000.0,China,CHN
Dehui,44.535,125.703,839786.0,China,CHN
Pietermaritzburg,-29.6167,30.3833,839327.0,South Africa,ZAF
Durban,-29.8833,31.05,838634.0,South Africa,ZAF
Bhubaneshwar,20.2644,85.8281,837737.0,India,IND
Denpasar,-8.65,115.2167,834881.0,Indonesia,IDN
Tongchuan,34.897,108.945,834437.0,China,CHN
João Pessoa,-7.12,-34.88,833932.0,Brazil,BRA
Samarinda,-0.5,117.1378,831460.0,Indonesia,IDN
Chengxiang,31.564,121.174,831113.0,China,CHN
Rongjiawan,29.1409,113.1087,826000.0,China,CHN
Weichanglu,37.1792,119.9333,824708.0,China,CHN
Sakai,34.5733,135.4831,824408.0,Japan,JPN
Renqiu,38.686,116.084,822455.0,China,CHN
Omaha,41.2627,-96.0529,821345.0,United States,USA
Xindi,29.827,113.476,819446.0,China,CHN
Wu’an,36.697,114.204,819000.0,China,CHN
Qingping,34.539,113.391,817000.0,China,CHN
Gaoyou,32.7847,119.4432,811800.0,China,CHN
São Bernardo do Campo,-23.7,-46.55,810729.0,Brazil,BRA
Yiyang,26.4221,112.3999,810447.0,China,CHN
Hejian,38.4466,116.0995,810306.0,China,CHN
Puxi,35.2125,114.735,809535.0,China,CHN
Bhayandar,19.29,72.85,809378.0,India,IND
Androtsy,-24.1,46.3,809313.0,Madagascar,MDG
Culiacán,24.8069,-107.3939,808416.0,Mexico,MEX
Cúcuta,7.8942,-72.5039,806378.0,Colombia,COL
Danyang,32.0,119.586,806300.0,China,CHN
Dongyang,29.2667,120.2167,804398.0,China,CHN
Kraków,50.0614,19.9372,804237.0,Poland,POL
Pasig City,14.5605,121.0765,803159.0,Philippines,PHL
Thessaloníki,40.6403,22.9347,802572.0,Greece,GRC
Querétaro,20.5875,-100.3928,801940.0,Mexico,MEX
Palermo,2.8917,-75.4375,800000.0,Colombia,COL
Xigazê,29.25,88.8833,798153.0,China,CHN
Qamdo,31.143,97.17,798067.0,China,CHN
McAllen,26.2252,-98.2467,797341.0,United States,USA
Libreville,0.3903,9.4542,797003.0,Gabon,GAB
Seyhan,36.9831,35.3328,795012.0,Turkey,TUR
San Pedro Sula,15.5,-88.0333,793835.0,Honduras,HND
Niigata,37.9161,139.0364,790646.0,Japan,JPN
Hempstead,40.6629,-73.6089,789763.0,United States,USA
Leeds,53.7975,-1.5436,789194.0,United Kingdom,GBR
Hamamatsu,34.7108,137.7275,788211.0,Japan,JPN
Pointe-Noire,-4.7975,11.8503,787799.0,Congo (Brazzaville),COG
Xiangxiang,27.7186,112.5502,787216.0,China,CHN
Birmingham,33.5279,-86.7971,782111.0,United States,USA
Chaohucun,31.6244,117.8902,782000.0,China,CHN
Bucheon,37.5,126.7833,781119.0,"Korea, South",KOR
Lubango,-14.9167,13.5,776249.0,Angola,AGO
Homs,34.7308,36.7094,775404.0,Syria,SYR
Bilbao,43.2569,-2.9236,775000.0,Spain,ESP
Zouping,36.863,117.743,774517.0,China,CHN
Frankfurt,50.1106,8.6822,773068.0,Germany,DEU
San Luis Potosí,22.1511,-100.9761,772828.0,Mexico,MEX
Dali,25.6065,100.2676,771128.0,China,CHN
Fuyang,30.0553,119.95,771000.0,China,CHN
Khŭjand,40.2833,69.6333,770000.0,Tajikistan,TJK
Korla,41.7259,86.1746,770000.0,China,CHN
Albuquerque,35.1054,-106.6465,769986.0,United States,USA
Hamhŭng,39.9167,127.5333,768551.0,"Korea, North",PRK
Erzurum,39.9086,41.2769,767848.0,Turkey,TUR
Zagreb,45.8131,15.9775,767131.0,Croatia,HRV
Al ‘Ayn,24.2075,55.7447,766936.0,United Arab Emirates,ARE
Songzi,30.174,111.757,765911.0,China,CHN
Patiāla,30.34,76.38,763280.0,India,IND
Laixi,36.8667,120.5333,762900.0,China,CHN
Zhongba,31.771,104.755,762140.0,China,CHN
Bahawalpur,29.3956,71.6836,762111.0,Pakistan,PAK
Qingnian,36.8494,115.7061,760781.0,China,CHN
Kaduna,10.5167,7.4333,760084.0,Nigeria,NGA
Winnipeg,49.8844,-97.1464,758515.0,Canada,CAN
Trabzon,41.005,39.7225,758237.0,Turkey,TUR
Guangshui,31.617,113.826,755910.0,China,CHN
Baardheere,2.3333,42.2833,755500.0,Somalia,SOM
Shīshgarh,28.72,79.32,753815.0,India,IND
Nerima,35.7356,139.6517,752608.0,Japan,JPN
Sizhan,38.9846,106.3828,751389.0,China,CHN
Ciudad Guayana,8.3667,-62.65,751331.0,Venezuela,VEN
Natal,-5.7833,-35.2,751300.0,Brazil,BRA
Lichuan,30.291,108.9364,750670.0,China,CHN
Licheng,31.4306,119.4788,749522.0,China,CHN
Santo André,-23.6572,-46.5333,748919.0,Brazil,BRA
Ōta-ku,35.5614,139.7161,748081.0,Japan,JPN
Gaalkacyo,6.7697,47.4308,745000.0,Somalia,SOM
Thiruvananthapuram,8.5241,76.9366,743691.0,India,IND
Osasco,-23.5328,-46.7919,743432.0,Brazil,BRA
Nampula,-15.1167,39.2667,743000.0,Mozambique,MOZ
Pretoria,-25.7461,28.1881,741651.0,South Africa,ZAF
Kyaukse,21.6131,96.1303,741071.0,Burma,MMR
Chengguan,35.4623,113.8054,740435.0,China,CHN
Nehe,48.4833,124.8833,740000.0,China,CHN
Cabinda,-5.56,12.19,739182.0,Angola,AGO
Kumamoto,32.8031,130.7078,738385.0,Japan,JPN
Kermān,30.2911,57.0678,738374.0,Iran,IRN
Zunhua,40.189,117.966,737011.0,China,CHN
Orūmīyeh,37.5439,45.0647,736224.0,Iran,IRN
Wugang,26.7266,110.6319,734870.0,China,CHN
Bağcılar,41.0344,28.8564,734369.0,Turkey,TUR
Quebec City,46.8139,-71.2081,733156.0,Canada,CAN
Shuangqiao,35.067,112.602,733000.0,China,CHN
Umraniye,41.0311,29.1081,732379.0,Turkey,TUR
Yanggok,37.6333,127.2167,732376.0,"Korea, South",KOR
Tshikapa,-6.4167,20.8,732000.0,Congo (Kinshasa),COD
Tulsa,36.1283,-95.9042,731743.0,United States,USA
Osogbo,7.7667,4.5667,731000.0,Nigeria,NGA
Comodoro Rivadavia,-45.8647,-67.4808,730266.0,Argentina,ARG
Nottingham,52.9561,-1.1512,729977.0,United Kingdom,GBR
Hamilton,43.2567,-79.8692,729560.0,Canada,CAN
Langzhong,31.558,106.005,728935.0,China,CHN
Cagayan de Oro,8.48,124.65,728402.0,Philippines,PHL
Qian’an,39.999,118.701,728160.0,China,CHN
Fresno,36.783,-119.7939,725276.0,United States,USA
An Najaf,32.0,44.33,724700.0,Iraq,IRQ
Cencheng,22.9167,111.0,724364.0,China,CHN
Sorocaba,-23.5017,-47.4581,723574.0,Brazil,BRA
Guli,28.9,120.0333,723490.0,China,CHN
Sagamihara,35.5667,139.3667,722973.0,Japan,JPN
Pīshbar,33.3886,59.9789,720207.0,Iran,IRN
Okayama,34.65,133.9167,720043.0,Japan,JPN
Anlu,31.2667,113.6667,720000.0,China,CHN
Concepción,-36.8282,-73.0514,719944.0,Chile,CHL
Mississauga,43.6,-79.65,717961.0,Canada,CAN
Changsha,22.3773,112.6982,717700.0,China,CHN
Songyang,34.4553,113.0253,717400.0,China,CHN
Lviv,49.8425,24.0322,717273.0,Ukraine,UKR
Shihezi,44.3054,86.0804,717000.0,China,CHN
Vilnius,54.6872,25.28,716856.0,Lithuania,LTU
Marka,1.7133,44.7656,716361.0,Somalia,SOM
Enugu,6.4528,7.5111,715774.0,Nigeria,NGA
Valenzuela,14.7,120.98,714978.0,Philippines,PHL
Yatou,37.1653,122.4867,714211.0,China,CHN
Uberlândia,-18.9231,-48.2886,713232.0,Brazil,BRA
Xichang,27.8944,102.2644,712434.0,China,CHN
Zaporizhzhia,47.85,35.1175,710052.0,Ukraine,UKR
Bhiwandi,19.2967,73.0631,709665.0,India,IND
George Town,5.4144,100.3292,708127.0,Malaysia,MYS
Bristol,51.4536,-2.5975,707412.0,United Kingdom,GBR
Charleston,32.8168,-79.9687,706884.0,United States,USA
Sahāranpur,29.964,77.546,705478.0,India,IND
Dashiqiao,40.6167,122.5167,704891.0,China,CHN
Yenimahalle,39.9719,32.8119,704652.0,Turkey,TUR
Warangal,17.9689,79.5941,704570.0,India,IND
Nampo,38.7333,125.4,703317.0,"Korea, North",PRK
Dasmariñas,14.33,120.94,703141.0,Philippines,PHL
Jaboatão,-8.1803,-35.0014,702621.0,Brazil,BRA
Chisinau,47.0228,28.8353,702300.0,Moldova,MDA
Shiliguri,26.71,88.43,701489.0,India,IND
Boosaaso,11.2886,49.1819,700906.0,Somalia,SOM
Port Moresby,-9.4789,147.1494,700000.0,Papua New Guinea,PNG
Latakia,35.5167,35.7833,700000.0,Syria,SYR
Rochester,43.168,-77.6162,699921.0,United States,USA
Ribeirão Prêto,-21.1783,-47.8067,698259.0,Brazil,BRA
Edogawa,35.7,139.8833,697932.0,Japan,JPN
São José dos Campos,-23.1789,-45.8869,697428.0,Brazil,BRA
General Santos,6.12,125.17,697315.0,Philippines,PHL
Ḩamāh,35.1333,36.75,696863.0,Syria,SYR
Qianxi,27.0087,106.0323,695947.0,China,CHN
Bauchi,10.3158,9.8442,693700.0,Nigeria,NGA
Pendik,40.8747,29.235,693599.0,Turkey,TUR
Salem,11.65,78.15,693236.0,India,IND
Shishi,24.7167,118.7,693000.0,China,CHN
Sinnūris,29.4072,30.8667,692701.0,Egypt,EGY
Cocody,5.35,-3.9667,692583.0,Côte d’Ivoire,CIV
Miluo Chengguanzhen,28.761,113.16,692080.0,China,CHN
Lokoja,7.8019,6.7442,692050.0,Nigeria,NGA
Guadalupe,25.6775,-100.2597,691931.0,Mexico,MEX
Gaizhou,40.4,122.35,691595.0,China,CHN
Karbalā’,32.6167,44.0333,690100.0,Iraq,IRQ
Borvāyeh-ye Al Bū ‘Azīz,31.6283,48.6147,690000.0,Iran,IRN
City of Parañaque,14.5008,120.9915,689992.0,Philippines,PHL
Leling,37.73,117.232,689867.0,China,CHN
Mamak,39.9422,32.9231,687535.0,Turkey,TUR
Jianshe,34.2137,113.7629,687130.0,China,CHN
Tolyatti,53.5089,49.4222,685619.0,Russia,RUS
Shizuoka,34.9756,138.3828,685589.0,Japan,JPN
Jingcheng,32.009,120.263,684360.0,China,CHN
Agege,6.6219,3.3258,683600.0,Nigeria,NGA
Mar del Plata,-38.0,-57.55,682605.0,Argentina,ARG
Zaragoza,41.65,-0.8833,682513.0,Spain,ESP
Adachi,35.7833,139.8,682326.0,Japan,JPN
Xinmin,41.997,122.823,680000.0,China,CHN
Rasht,37.2744,49.5889,679995.0,Iran,IRN
Shanhu,29.6,120.8167,679762.0,China,CHN
Zhongshu,27.7919,106.4013,679624.0,China,CHN
Cotonou,6.3667,2.4333,679012.0,Benin,BEN
Tasikmalaya,-7.3161,108.1975,678027.0,Indonesia,IDN
Kochi,9.9312,76.2673,677381.0,India,IND
Soledad,10.9167,-74.75,676014.0,Colombia,COL
Dhūlia,20.8997,74.7697,675000.0,India,IND
Acapulco de Juárez,16.8636,-99.8825,673478.0,Mexico,MEX
Gorakhpur,26.7637,83.4039,673446.0,India,IND
Bahār,34.9028,48.4425,673405.0,Iran,IRN
Kumul,42.8193,93.5151,673383.0,China,CHN
Wrocław,51.11,17.0325,672929.0,Poland,POL
Murcia,37.9861,-1.1303,672773.0,Spain,ESP
Pinghu,30.7005,121.0104,671834.0,China,CHN
Guankou,30.988,103.647,671200.0,China,CHN
Łódź,51.7769,19.4547,670642.0,Poland,POL
Guntūr,16.3008,80.4428,670073.0,India,IND
Bhāngar,22.58,88.42,670000.0,India,IND
Dayton,39.7805,-84.2003,668825.0,United States,USA
Ch’ŏngjin,41.7833,129.7667,667929.0,"Korea, North",PRK
Qionghu,28.945,112.598,667104.0,China,CHN
Zhaodong,46.051,125.962,666532.0,China,CHN
Puyang Chengguanzhen,35.7004,114.98,666322.0,China,CHN
Bulawayo,-20.17,28.58,665940.0,Zimbabwe,ZWE
Huambo,-12.7767,15.7347,665564.0,Angola,AGO
Aracaju,-10.9167,-37.05,664908.0,Brazil,BRA
Bacoor,14.4624,120.9645,664625.0,Philippines,PHL
Wenchang,31.054,116.9507,664455.0,China,CHN
Rotterdam,51.92,4.48,664311.0,Netherlands,NLD
Tlaquepaque,20.6167,-103.3167,664193.0,Mexico,MEX
Villavicencio,4.15,-73.6333,664148.0,Colombia,COL
Shulan,44.4059,126.9655,663403.0,China,CHN
Makhachkala,42.9667,47.4833,662600.0,Russia,RUS
Banjarmasin,-3.32,114.5925,662230.0,Indonesia,IDN
Narela,28.8527,77.0929,661994.0,India,IND
Catia La Mar,10.6,-67.0333,661897.0,Venezuela,VEN
Al Hufūf,25.3833,49.5833,660788.0,Saudi Arabia,SAU
Jalingo,8.9,11.3667,660213.0,Nigeria,NGA
Sargodha,32.0836,72.6711,659862.0,Pakistan,PAK
Karaikandi,24.8309,92.6143,659260.0,India,IND
Bouaké,7.6833,-5.0167,659233.0,Côte d’Ivoire,CIV
Lingbao Chengguanzhen,34.5176,110.8942,656571.0,China,CHN
Brampton,43.6833,-79.7667,656480.0,Canada,CAN
Abomey-Calavi,6.4486,2.3556,655965.0,Benin,BEN
Durango,24.025,-104.6675,654876.0,Mexico,MEX
Cape Coral,26.6443,-81.9957,654405.0,United States,USA
Tondo,14.617,120.967,654220.0,Philippines,PHL
Dayrūţ,27.5667,30.8167,653847.0,Egypt,EGY
Tlalnepantla,19.5367,-99.1947,653410.0,Mexico,MEX
Ansan,37.3167,126.8333,652800.0,"Korea, South",KOR
Xiping,25.6005,103.8166,652604.0,China,CHN
Huế,16.4667,107.5792,652572.0,Vietnam,VNM
Sanhe,40.0167,117.0833,652042.0,China,CHN
San Jose del Monte,14.8139,121.0453,651813.0,Philippines,PHL
Ch’ŏnan,36.81,127.1475,651661.0,"Korea, South",KOR
Cuiabá,-15.5958,-56.0969,650912.0,Brazil,BRA
Jieshou,33.257,115.3746,650870.0,China,CHN
Ērer Sātā,9.5667,41.3833,649000.0,Ethiopia,ETH
Selçuklu,37.8814,32.4922,648850.0,Turkey,TUR
Suohe,34.7833,113.35,648700.0,China,CHN
Guixi,28.2925,117.2454,647240.0,China,CHN
Izhevsk,56.8333,53.1833,646277.0,Russia,RUS
Honchō,35.6946,139.9826,644668.0,Japan,JPN
Wuxue,29.844,115.561,644247.0,China,CHN
Jaboatão dos Guararapes,-8.1122,-35.0156,643759.0,Brazil,BRA
Yıldırım,40.11,29.0821,643681.0,Turkey,TUR
Bhāvnagar,21.76,72.15,643365.0,India,IND
Jinghong,22.009,100.797,642737.0,China,CHN
Tengyue,25.0167,98.4833,642481.0,China,CHN
Mission Viejo,33.6096,-117.6551,642211.0,United States,USA
Ruiming,25.886,116.027,640600.0,China,CHN
Qufu,35.5819,116.9862,640498.0,China,CHN
Sha Tin,22.3802,114.1898,640000.0,Hong Kong,HKG
Petaling Jaya,3.0972,101.6444,638516.0,Malaysia,MYS
Colorado Springs,38.8674,-104.7605,638194.0,United States,USA
Noida,28.57,77.32,637272.0,India,IND
Xinshi,31.1333,113.1167,636776.0,China,CHN
Baton Rouge,30.442,-91.1311,635671.0,United States,USA
Manama,26.225,50.5775,635000.0,Bahrain,BHR
Las Palmas,28.1258,-15.4353,635000.0,Spain,ESP
Chak Forty-one,31.0167,73.85,634236.0,Pakistan,PAK
Jin’e,29.3394,105.2875,633210.0,China,CHN
Benghazi,32.1167,20.0667,631555.0,Libya,LBY
Chuxiong,25.033,101.5459,631530.0,China,CHN
Barnaul,53.3486,83.7764,631124.0,Russia,RUS
Palermo,38.1111,13.3517,630167.0,Italy,ITA
Makati City,14.5567,121.0214,629616.0,Philippines,PHL
Düsseldorf,51.2333,6.7833,629047.0,Germany,DEU
Allentown,40.5961,-75.4756,627863.0,United States,USA
Xinxing,39.8667,124.15,627475.0,China,CHN
Ţūkh,30.3539,31.2007,627290.0,Egypt,EGY
Glasgow,55.8611,-4.25,626410.0,United Kingdom,GBR
Namangan,41.0011,71.6683,626120.0,Uzbekistan,UZB
Bazal’tove,50.6765,26.16,625543.0,Ukraine,UKR
Al Qaţīf,26.556,49.996,625092.0,Saudi Arabia,SAU
Bhilai,21.21,81.38,624700.0,India,IND
Ulyanovsk,54.3167,48.3667,624518.0,Russia,RUS
Mangalore,12.8681,74.8425,623841.0,India,IND
Kaihua,23.387,104.233,623772.0,China,CHN
Irkutsk,52.2833,104.2833,623736.0,Russia,RUS
Meilan,19.999,110.403,623667.0,China,CHN
Bazhou,39.1333,116.3833,622975.0,China,CHN
Ogden,41.2279,-111.9682,622918.0,United States,USA
Turpan,42.9512,89.1895,622903.0,China,CHN
Jos,9.9167,8.8903,622802.0,Nigeria,NGA
Al Manşūrah,31.05,31.3833,621953.0,Egypt,EGY
Contagem,-19.9319,-44.0539,621865.0,Brazil,BRA
Jambi,-1.59,103.61,619553.0,Indonesia,IDN
Ḩalwān,29.8453,31.3333,619293.0,Egypt,EGY
Provo,40.2457,-111.6457,619218.0,United States,USA
Tân An,10.905,106.6994,618984.0,Vietnam,VNM
Port-Bouët,5.2667,-3.9,618795.0,Côte d’Ivoire,CIV
Pontianak,-0.0206,109.3414,618388.0,Indonesia,IDN
Meihekou,42.5407,125.7107,618251.0,China,CHN
Jurong,31.946,119.164,617706.0,China,CHN
Bihtā,25.5619,84.87,617427.0,India,IND
Yuhuan,28.1277,121.2288,616346.0,China,CHN
Joinvile,-26.3204,-48.8437,616323.0,Brazil,BRA
Feira de Santana,-12.25,-38.95,616279.0,Brazil,BRA
Khabarovsk,48.4833,135.0833,616242.0,Russia,RUS
Leipzig,51.34,12.375,616093.0,Germany,DEU
Xinji,37.943,115.218,615919.0,China,CHN
Knoxville,35.9692,-83.9496,615829.0,United States,USA
Ta‘izz,13.5789,44.0219,615467.0,Yemen,YEM
Etimesgut,39.9458,32.6694,614891.0,Turkey,TUR
Changping,40.2248,116.1944,614821.0,China,CHN
Tallinn,59.4372,24.7453,614561.0,Estonia,EST
Chimalhuacán,19.4167,-98.9,614453.0,Mexico,MEX
Kandahār,31.62,65.7158,614254.0,Afghanistan,AFG
Serang,-6.12,106.1503,613356.0,Indonesia,IDN
Zhangshu,28.0546,115.5462,610424.0,China,CHN
Grand Rapids,42.9619,-85.6562,609023.0,United States,USA
Yukarıkaraman,36.9167,30.6833,608675.0,Turkey,TUR
Gothenburg,57.7075,11.9675,607882.0,Sweden,SWE
Kuantan,3.8167,103.3333,607778.0,Malaysia,MYS
Gold Coast,-28.0167,153.4,607665.0,Australia,AUS
Kawaguchi,35.8077,139.7241,607373.0,Japan,JPN
Las Piñas City,14.45,120.98,606293.0,Philippines,PHL
Cuttack,20.5236,85.7881,606007.0,India,IND
San Miguel de Tucumán,-26.8167,-65.2167,605767.0,Argentina,ARG
Ar Rayyān,25.25,51.4,605712.0,Qatar,QAT
Salīmpur,26.3,83.9167,604483.0,India,IND
Malanje,-9.5333,16.35,604215.0,Angola,AGO
Columbia,34.0378,-80.9036,604065.0,United States,USA
Kryvyi Rih,47.91,33.39,603904.0,Ukraine,UKR
Djibouti,11.5883,43.145,603900.0,Djibouti,DJI
Zhuozhou,39.485,115.974,603535.0,China,CHN
Tianchang,32.6811,119.0137,602840.0,China,CHN
Tunis,36.8064,10.1817,602560.0,Tunisia,TUN
Yaroslavl,57.6167,39.85,601403.0,Russia,RUS
Bacolod,10.6765,122.9509,600783.0,Philippines,PHL
Garoua,9.3,13.4,600000.0,Cameroon,CMR
Bafoussam,5.4667,10.4167,600000.0,Cameroon,CMR
Haifa,32.8192,34.9992,600000.0,Israel,ISR
Raurkela,22.2492,84.8828,600000.0,India,IND
Tumkūr,13.34,77.1,599078.0,India,IND
Balikpapan,-1.2768,116.8277,598043.0,Indonesia,IDN
Somolu,6.5408,3.3872,597400.0,Nigeria,NGA
Vladivostok,43.1333,131.9,597240.0,Russia,RUS
Al Ḩillah,23.4895,46.7564,594605.0,Saudi Arabia,SAU
Melikgazi,38.7167,35.5,594344.0,Turkey,TUR
Kagoshima,31.6,130.55,593754.0,Japan,JPN
Sihui,23.3265,112.7338,593400.0,China,CHN
Dortmund,51.5139,7.4653,593317.0,Germany,DEU
Irapuato,20.6667,-101.35,592953.0,Mexico,MEX
Al Maḩallah al Kubrá,30.9686,31.1636,592573.0,Egypt,EGY
Sialkot City,32.4925,74.5311,591668.0,Pakistan,PAK
Luocheng,30.99,104.25,591115.0,China,CHN
Albany,42.6664,-73.7987,590694.0,United States,USA
Pereira,4.8143,-75.6946,590554.0,Colombia,COL
Gaza,31.5069,34.456,590481.0,Gaza Strip,PSE
Uvira,-3.4,29.15,590000.0,Congo (Kinshasa),COD
Reynosa,26.0922,-98.2778,589466.0,Mexico,MEX
Zāhedān,29.5025,60.8558,587730.0,Iran,IRN
Cimahi,-6.8712,107.5548,586580.0,Indonesia,IDN
Mbale,1.0806,34.175,586300.0,Uganda,UGA
Wenlan,23.3961,103.3649,585976.0,China,CHN
Shangzhi,45.2116,127.962,585386.0,China,CHN
Essen,51.4508,7.0131,584580.0,Germany,DEU
Itabashi,35.7667,139.6833,584483.0,Japan,JPN
Shah Alam,3.0722,101.5167,584340.0,Malaysia,MYS
Botou,38.0833,116.5833,584308.0,China,CHN
Suginami-ku,35.6994,139.6364,583609.0,Japan,JPN
Tenkāsi,8.9564,77.3152,580000.0,India,IND
Kingston,17.9714,-76.7931,580000.0,Jamaica,JAM
Al Mafraq,32.3399,36.2052,580000.0,Jordan,JOR
Aţ Ţā’if,21.2751,40.4062,579970.0,Saudi Arabia,SAU
Port Sudan,19.6167,37.2167,579942.0,Sudan,SDN
Tuxtla,16.7528,-93.1167,578830.0,Mexico,MEX
Dehra Dūn,30.345,78.029,578420.0,India,IND
Xiulin,29.7209,112.4254,577022.0,China,CHN
Fu’an,27.1,119.6333,577000.0,China,CHN
Mymensingh,24.7539,90.4031,576927.0,Bangladesh,BGD
Hachiōji,35.6664,139.316,575721.0,Japan,JPN
Iloilo,10.72,122.57,574000.0,Philippines,PHL
Puente Alto,-33.6167,-70.5667,573935.0,Chile,CHL
Tomsk,56.5,84.9667,572740.0,Russia,RUS
Rabat,34.0209,-6.8416,572717.0,Morocco,MAR
Sincan,39.9594,32.5767,572609.0,Turkey,TUR
Bakersfield,35.3529,-119.0359,571992.0,United States,USA
Kottayam,9.5916,76.5222,571856.0,India,IND
Luofeng,37.359,120.396,570898.0,China,CHN
Shibīn al Qanāţir,30.3133,31.3214,570868.0,Egypt,EGY
Nakuru,-0.3,36.0667,570674.0,Kenya,KEN
Lingyuan,41.25,119.4,570660.0,China,CHN
Tonalá,20.6167,-103.2333,569913.0,Mexico,MEX
Bremen,53.0758,8.8072,569396.0,Germany,DEU
Abū Ḩummuş,31.1006,30.3128,569157.0,Egypt,EGY
Irbid,32.55,35.85,569068.0,Jordan,JOR
Macau,22.2006,113.5461,568700.0,Macau,MAC
Surrey,49.19,-122.8489,568322.0,Canada,CAN
Ciudad Bolívar,8.1219,-63.55,567953.0,Venezuela,VEN
Durgāpur,23.55,87.32,566937.0,India,IND
Shenzhou,38.002,115.56,566087.0,China,CHN
New Haven,41.3113,-72.9246,565572.0,United States,USA
Orenburg,51.7833,55.1,564773.0,Russia,RUS
Kuiju,36.8667,119.4,564501.0,China,CHN
Zhenzhou,32.2723,119.1848,564021.0,China,CHN
Āsansol,23.68,86.99,563917.0,India,IND
Bokaro Steel City,23.67,86.15,563417.0,India,IND
Dresden,51.05,13.74,563311.0,Germany,DEU
Bello,6.3333,-75.5667,561955.0,Colombia,COL
Kolhāpur,16.6917,74.2333,561489.0,India,IND
Wencheng,19.617,110.7551,560894.0,China,CHN
Lanxi,29.208,119.458,560514.0,China,CHN
Dangyang,30.821,111.789,560000.0,China,CHN
Nava Raipur,21.161,81.787,560000.0,India,IND
Kemerovo,55.3667,86.0667,558973.0,Russia,RUS
Genoa,44.4111,8.9328,558745.0,Italy,ITA
Herāt,34.3419,62.2031,556205.0,Afghanistan,AFG
Londrina,-23.31,-51.1628,555937.0,Brazil,BRA
Cuautitlán Izcalli,19.65,-99.25,555163.0,Mexico,MEX
Uyo,5.0333,7.9275,554906.0,Nigeria,NGA
Hamadān,34.8064,48.5161,554406.0,Iran,IRN
Luanzhou,39.741,118.704,554315.0,China,CHN
Chiclayo,-6.763,-79.8366,552508.0,Peru,PER
Surakarta,-7.5667,110.8167,552118.0,Indonesia,IDN
Novokuznetsk,53.7667,87.1333,552105.0,Russia,RUS
Ajmer,26.4499,74.6399,551101.0,India,IND
Kimhae,35.2342,128.8811,550758.0,"Korea, South",KOR
Nānded,19.15,77.3,550439.0,India,IND
Wuhai,39.655,106.794,550000.0,China,CHN
Palma,39.5667,2.65,550000.0,Spain,ESP
Rustenburg,-25.6667,27.2428,549575.0,South Africa,ZAF
Amrāvati,20.9258,77.7647,549370.0,India,IND
Des Moines,41.5725,-93.6105,548926.0,United States,USA
Lisbon,38.7253,-9.15,548703.0,Portugal,PRT
Yanji,42.9,129.5,548700.0,China,CHN
Huanghua,38.372,117.33,548507.0,China,CHN
Al Ḩudaydah,14.8022,42.9511,548433.0,Yemen,YEM
Anyang,37.3833,126.9333,548372.0,"Korea, South",KOR
The Hague,52.08,4.31,548320.0,Netherlands,NLD
Andijon,40.7833,72.3333,547800.0,Uzbekistan,UZB
Manchester,53.479,-2.2452,547627.0,United Kingdom,GBR
Nellore,14.45,79.99,547621.0,India,IND
Poznań,52.4083,16.9336,546859.0,Poland,POL
Samarkand,39.6547,66.9758,546303.0,Uzbekistan,UZB
Xingcheng,40.6167,120.7333,546176.0,China,CHN
Wancheng,18.8,110.4,545992.0,China,CHN
Kaiyuan,42.546,124.038,545624.0,China,CHN
Hannover,52.3667,9.7167,545045.0,Germany,DEU
Sungai Petani,5.65,100.5,544851.0,Malaysia,MYS
Valledupar,10.4833,-73.25,544134.0,Colombia,COL
Fengcheng,40.45,124.0667,543933.0,China,CHN
Muntinlupa City,14.38,121.05,543445.0,Philippines,PHL
Ghulja,43.9,81.35,542507.0,China,CHN
Ixtapaluca,19.3186,-98.8822,542211.0,Mexico,MEX
Fuding,27.2,120.2,542000.0,China,CHN
Heroica Matamoros,25.8797,-97.5042,541979.0,Mexico,MEX
Akron,41.0798,-81.5219,541945.0,United States,USA
Mbeya,-8.9,33.45,541603.0,Tanzania,TZA
An Nāşirīyah,31.0439,46.2575,541600.0,Iraq,IRQ
Xiangyang,34.2995,108.4905,541554.0,China,CHN
Ibagué,4.4333,-75.2333,541101.0,Colombia,COL
Al Ḩillah,32.4775,44.4314,541034.0,Iraq,IRQ
Juiz de Fora,-21.7619,-43.3494,540756.0,Brazil,BRA
City of Calamba,14.22,121.17,539671.0,Philippines,PHL
El Geneina,13.45,22.45,538390.0,Sudan,SDN
Santa Cruz,28.4667,-16.25,538000.0,Spain,ESP
Ryazan,54.63,39.7425,537622.0,Russia,RUS
Chang’an,29.4768,113.4504,537500.0,China,CHN
Florianópolis,-27.6122,-48.4853,537213.0,Brazil,BRA
Nilüfer,40.2833,28.95,536365.0,Turkey,TUR
Antwerp,51.2178,4.4003,536079.0,Belgium,BEL
Kassala,15.45,36.4,536009.0,Sudan,SDN
Aksu,41.185,80.2904,535657.0,China,CHN
Salta,-24.7833,-65.4167,535303.0,Argentina,ARG
Dispur,26.1397,91.7925,534872.0,India,IND
Palm Bay,27.9631,-80.6593,534348.0,United States,USA
Naberezhnyye Chelny,55.6833,52.3167,533839.0,Russia,RUS
Gulbarga,17.329,76.825,533587.0,India,IND
Nansana,0.3639,32.5286,532800.0,Uganda,UGA
Mingguang,32.7833,117.9667,532732.0,China,CHN
Concord,37.9722,-122.0016,531175.0,United States,USA
Beira,-19.8333,34.85,530604.0,Mozambique,MOZ
Yazd,31.8822,54.3397,529673.0,Iran,IRN
Ardabīl,38.2425,48.29,529374.0,Iran,IRN
Touba,14.8667,-15.8833,529176.0,Senegal,SEN
Bīkaner,28.0181,73.3169,529007.0,India,IND
Gaobeidian,39.327,115.874,528903.0,China,CHN
Ndola,-12.9689,28.6325,528330.0,Zambia,ZMB
Himeji,34.8167,134.6833,527596.0,Japan,JPN
Ailan Mubage,43.908,81.2777,526745.0,China,CHN
Bandar ‘Abbās,27.1961,56.2878,526648.0,Iran,IRN
Skopje,41.9961,21.4317,526502.0,North Macedonia,MKD
Santa Teresa del Tuy,10.2333,-66.6639,525321.0,Venezuela,VEN
Port Said,31.2625,32.3061,524433.0,Egypt,EGY
Astrakhan,46.35,48.035,524371.0,Russia,RUS
Kōtō-ku,35.6667,139.8167,524310.0,Japan,JPN
Ciudad Apodaca,25.7817,-100.1886,523370.0,Mexico,MEX
Montería,8.75,-75.8833,523150.0,Colombia,COL
Nuremberg,49.4539,11.0775,523026.0,Germany,DEU
Kitchener,43.4186,-80.4728,522888.0,Canada,CAN
Yucheng,36.934,116.638,522878.0,China,CHN
Nāgercoil,8.175,77.4306,522759.0,India,IND
Agartala,23.8314,91.2869,522613.0,India,IND
Soacha,4.5872,-74.2214,522442.0,Colombia,COL
Buca,38.35,27.1667,522404.0,Turkey,TUR
Lyon,45.76,4.84,522250.0,France,FRA
Maipú,-33.5167,-70.7667,521627.0,Chile,CHL
Arāk,34.0914,49.6933,520944.0,Iran,IRN
Serra,-20.1289,-40.3078,520649.0,Brazil,BRA
Tultitlán de Mariano Escobedo,19.645,-99.1694,520557.0,Mexico,MEX
Meknès,33.895,-5.5547,520428.0,Morocco,MAR
Bắc Ninh,21.1833,106.05,520000.0,Vietnam,VNM
Anda,46.424,125.352,520000.0,China,CHN
Longzhou,30.32,112.23,520000.0,China,CHN
Al Fayyūm,29.3084,30.8441,519047.0,Egypt,EGY
Utsunomiya,36.5551,139.8826,518197.0,Japan,JPN
Sheffield,53.3808,-1.4703,518090.0,United Kingdom,GBR
Mixco,14.6331,-90.6064,517505.0,Guatemala,GTM
Suez,29.9667,32.55,516959.0,Egypt,EGY
Heshan,22.7667,112.95,516500.0,China,CHN
Penza,53.2,45.0,516450.0,Russia,RUS
Loni,28.75,77.28,516082.0,India,IND
Jiaji,19.2431,110.4642,515700.0,China,CHN
Santa Marta,11.2419,-74.2053,515556.0,Colombia,COL
Ujjain,23.17,75.79,515215.0,India,IND
Beining,41.6,121.8,514898.0,China,CHN
Abū Ţisht,26.1183,32.0953,514535.0,Egypt,EGY
Maturín,9.75,-63.183,514046.0,Venezuela,VEN
Liverpool,53.4094,-2.9785,513441.0,United Kingdom,GBR
Macapá,0.033,-51.05,512902.0,Brazil,BRA
Benguela,-12.55,13.4167,512886.0,Angola,AGO
Yicheng,31.721,112.257,512530.0,China,CHN
Al Fashn,28.8227,30.8992,512242.0,Egypt,EGY
Al ‘Amārah,31.8333,47.15,511500.0,Iraq,IRQ
Carrefour,18.5344,-72.4094,511345.0,Haiti,HTI
Campos,-21.7539,-41.3239,511168.0,Brazil,BRA
Cadaado,6.1403,46.6256,510654.0,Somalia,SOM
Encheng,22.1833,112.3,509700.0,China,CHN
Bhīlwāra,25.35,74.63,509483.0,India,IND
Bibā,28.9218,30.9844,509384.0,Egypt,EGY
Wichita,37.6895,-97.3443,509003.0,United States,USA
Leicester,52.6344,-1.1319,508916.0,United Kingdom,GBR
Newcastle,-27.7464,29.9328,507710.0,South Africa,ZAF
Hải Dương,20.9397,106.3306,507469.0,Vietnam,VNM
Aden,12.8,45.0333,507355.0,Yemen,YEM
Jhānsi,25.4486,78.5696,507000.0,India,IND
Matsuyama,33.8333,132.7667,506743.0,Japan,JPN
Ulhāsnagar,19.22,73.15,506098.0,India,IND
Nagqu,31.476,92.051,504838.0,China,CHN
Kitwe,-12.8167,28.2,504194.0,Zambia,ZMB
Vellore,12.9165,79.1325,504079.0,India,IND
Toulouse,43.6045,1.444,504078.0,France,FRA
Pohang,36.0322,129.365,503780.0,"Korea, South",KOR
Mesa,33.4015,-111.7178,503390.0,United States,USA
Lipetsk,52.6167,39.6,503216.0,Russia,RUS
Duisburg,51.4347,6.7625,502211.0,Germany,DEU
Jammu,32.73,74.87,502197.0,India,IND
Ile-Ife,7.4667,4.5667,501952.0,Nigeria,NGA
Homyel’,52.4453,30.9842,501802.0,Belarus,BLR
Kirov,58.6,49.6833,501468.0,Russia,RUS
Mazatlán,23.2167,-106.4167,501441.0,Mexico,MEX
Meicheng,30.631,116.581,500292.0,China,CHN
El Fasher,13.6306,25.35,500000.0,Sudan,SDN
Farāh,32.3436,62.1194,500000.0,Afghanistan,AFG
Belas,-8.9983,13.265,500000.0,Angola,AGO
Talatona,-8.9167,13.1833,500000.0,Angola,AGO
Nenjiang,49.11,125.13,500000.0,China,CHN
Sukkur,27.7061,68.8483,499900.0,Pakistan,PAK
Hsinchu,24.8167,120.9833,499348.0,Taiwan,TWN
Harrisburg,40.2752,-76.8843,498329.0,United States,USA
Kaliningrad,54.7003,20.4531,498260.0,Russia,RUS
Hongjiang,27.191,109.819,498100.0,China,CHN
Qaraghandy,49.8028,73.1056,497777.0,Kazakhstan,KAZ
Lapu-Lapu City,10.3127,123.9488,497604.0,Philippines,PHL
Matsudo,35.7876,139.9032,497514.0,Japan,JPN
Johor Bahru,1.4556,103.7611,497097.0,Malaysia,MYS
Purnea,25.778,87.476,496830.0,India,IND
Imus,14.4297,120.9367,496794.0,Philippines,PHL
Niterói,-22.8833,-43.1036,496696.0,Brazil,BRA
Beipiao,41.801,120.771,496164.0,China,CHN
Dengtacun,41.4333,123.3333,496122.0,China,CHN
Zhijiang,30.426,111.761,495995.0,China,CHN
Suoluntun,45.2279,124.8432,495900.0,China,CHN
Staten Island,40.5834,-74.1496,495747.0,United States,USA
Chengjiao,35.3984,114.0649,495744.0,China,CHN
Lembok,-8.565,116.351,495651.0,Indonesia,IDN
Likasi,-10.9833,26.7333,495000.0,Congo (Kinshasa),COD
Oujda-Angad,34.6867,-1.9114,494252.0,Morocco,MAR
Duyun,26.2594,107.5186,493574.0,China,CHN
Toledo,41.6638,-83.5827,493302.0,United States,USA
Pindi Bhattian,31.8958,73.2761,493222.0,Pakistan,PAK
Nyala,12.05,24.8833,492984.0,Sudan,SDN
Bissau,11.85,-15.5667,492004.0,Guinea-Bissau,GNB
Ichikawa,35.7219,139.9311,491716.0,Japan,JPN
Kota Bharu,6.1333,102.25,491237.0,Malaysia,MYS
Yuanping,38.731,112.711,491213.0,China,CHN
Higashi-ōsaka,34.6794,135.6008,490819.0,Japan,JPN
Larkana,27.5583,68.2111,490508.0,Pakistan,PAK
‘Ajmān,25.4136,55.4456,490035.0,United Arab Emirates,ARE
Vinh,18.6667,105.6667,490000.0,Vietnam,VNM
Ciudad López Mateos,19.55,-99.2833,489937.0,Mexico,MEX
Cheboksary,56.15,47.2333,489498.0,Russia,RUS
Yueqing,28.12,120.96,488980.0,China,CHN
Belgaum,15.85,74.5,488157.0,India,IND
Caerdydd,51.4833,-3.1833,488153.0,United Kingdom,GBR
Edinburgh,55.9533,-3.1892,488050.0,United Kingdom,GBR
Brookhaven,40.832,-72.9517,487162.0,United States,USA
Nishinomiya-hama,34.7376,135.3416,487010.0,Japan,JPN
Karamay,45.5799,84.8892,487000.0,China,CHN
Worcester,42.2705,-71.8079,486486.0,United States,USA
Kawachichō,34.6794,135.6008,486464.0,Japan,JPN
Shahe,36.8549,114.5033,486329.0,China,CHN
Gdańsk,54.3475,18.6453,486022.0,Poland,POL
Sevastopol,44.605,33.5225,485386.0,Ukraine,UKR
Garoowe,8.4,48.4667,485000.0,Somalia,SOM
Gaoping,35.798,112.924,484862.0,China,CHN
Villa Nueva,14.5269,-90.5875,483897.0,Guatemala,GTM
Dunhua,43.3667,128.2333,483811.0,China,CHN
Lianran,24.919,102.478,483753.0,China,CHN
Akhmīm,26.5667,31.75,482666.0,Egypt,EGY
Şanlıurfa,37.1583,38.7917,482323.0,Turkey,TUR
Az Zarqā’,32.0833,36.1,481300.0,Jordan,JOR
Mālegaon,20.55,74.55,481228.0,India,IND
São José do Rio Prêto,-20.8081,-49.3811,480439.0,Brazil,BRA
Valletta,35.8983,14.5125,480134.0,Malta,MLT
Kolwezi,-10.7167,25.4667,480000.0,Congo (Kinshasa),COD
Jāmnagar,22.47,70.07,479920.0,India,IND
Sylhet,24.9,91.8667,479837.0,Bangladesh,BGD
Ananindeua,-1.3658,-48.3719,478778.0,Brazil,BRA
East London,-33.0175,27.9047,478676.0,South Africa,ZAF
Berbera,10.4356,45.0164,478000.0,Somalia,SOM
Jiannan,31.3333,104.2,477868.0,China,CHN
Chiniot,31.7194,72.9842,477781.0,Pakistan,PAK
Asunción,-25.3,-57.6333,477346.0,Paraguay,PRY
Ōita,33.2333,131.6067,477186.0,Japan,JPN
Nangong,37.359,115.409,476096.0,China,CHN
Bārdoli,21.12,73.12,475963.0,India,IND
Eldoret,0.5167,35.2833,475716.0,Kenya,KEN
Bratislava,48.1439,17.1097,475503.0,Slovakia,SVK
Kurashiki,34.585,133.7722,474862.0,Japan,JPN
Al Jubayl,27.0,49.6544,474679.0,Saudi Arabia,SAU
Worthing,50.8147,-0.3714,474485.0,United Kingdom,GBR
Gaya,24.75,85.01,474093.0,India,IND
Shekhupura,31.7111,73.9878,473129.0,Pakistan,PAK
Piura,-5.2,-80.6333,473025.0,Peru,PER
Vila Velha,-20.3364,-40.2936,472762.0,Brazil,BRA
Ar Ruşayfah,32.0178,36.0464,472604.0,Jordan,JOR
Jiaojiangcun,28.6804,121.45,471500.0,China,CHN
Laohekou,32.359,111.684,471482.0,China,CHN
San Juan,-31.5342,-68.5261,471389.0,Argentina,ARG
Mykolaiv,46.975,31.995,470011.0,Ukraine,UKR
Beian,48.25,126.5167,470000.0,China,CHN
Fujin,47.25,132.0333,470000.0,China,CHN
Küçükçekmece,41.0,28.8,469431.0,Turkey,TUR
Mazār-e Sharīf,36.7,67.1167,469247.0,Afghanistan,AFG
Xiaoyi,36.0833,111.5167,468770.0,China,CHN
Balashikha,55.8167,37.9667,468221.0,Russia,RUS
Qingzhen,26.5704,106.4687,467992.0,China,CHN
Tula,54.2,37.6167,467955.0,Russia,RUS
Ba‘qūbah,33.75,44.6333,467900.0,Iraq,IRQ
Katlehong,-26.3333,28.15,467890.0,South Africa,ZAF
Jiangshan,28.7361,118.625,467862.0,China,CHN
Buraydah,26.3333,43.9667,467410.0,Saudi Arabia,SAU
Surab,28.4925,66.2597,467000.0,Pakistan,PAK
Kupang,-10.1702,123.6077,466632.0,Indonesia,IDN
Ambattūr,13.1143,80.1548,466205.0,India,IND
Nakhon Ratchasima,14.975,102.1,466098.0,Thailand,THA
Tân Uyên,11.0508,106.7636,466053.0,Vietnam,VNM
Constantine,36.35,6.6,465138.0,Algeria,DZA
Longjiang,27.5819,120.5489,464695.0,China,CHN
Caxias do Sul,-29.1667,-51.1833,463338.0,Brazil,BRA
Angeles City,15.1472,120.5847,462928.0,Philippines,PHL
Kuqa,41.7156,82.9322,462588.0,China,CHN
Kanazawa,36.5611,136.6564,462479.0,Japan,JPN
Long Beach,33.7977,-118.167,462293.0,United States,USA
Port St. Lucie,27.2796,-80.3884,462047.0,United States,USA
Manado Light,1.4931,124.8413,461636.0,Indonesia,IDN
Kartal,40.8872,29.19,461155.0,Turkey,TUR
Cranbourne,-38.0996,145.2834,460491.0,Australia,AUS
Jalgaon,21.004,75.568,460468.0,India,IND
Porto Velho,-8.7619,-63.9039,460413.0,Brazil,BRA
Chhatarpur,24.55,79.3527,459943.0,India,IND
Fukuyama,34.4858,133.3622,459576.0,Japan,JPN
Little Rock,34.7256,-92.3577,459409.0,United States,USA
Juba,4.85,31.6,459342.0,South Sudan,SSD
Lanús,-34.7,-58.4,459263.0,Argentina,ARG
Amagasaki,34.7333,135.4,458835.0,Japan,JPN
Kikwit,-5.0386,18.8181,458000.0,Congo (Kinshasa),COD
Pyeongtaek,36.9922,127.1128,457873.0,"Korea, South",KOR
Reno,39.5497,-119.8483,457702.0,United States,USA
Kurnool,15.83,78.05,457633.0,India,IND
Spokane,47.6671,-117.433,456219.0,United States,USA
Marikina City,14.65,121.1,456059.0,Philippines,PHL
Jian’ou,27.0333,118.3167,456000.0,China,CHN
Huadian,42.972,126.746,455339.0,China,CHN
Melaka,2.1944,102.2486,455300.0,Malaysia,MYS
Manado,1.4931,124.8413,454606.0,Indonesia,IDN
Manizales,5.1,-75.55,454494.0,Colombia,COL
Bornova,38.4697,27.2211,454470.0,Turkey,TUR
Minzhu,43.7238,127.3448,453265.0,China,CHN
Demiryol,37.887,41.132,452157.0,Turkey,TUR
Erköklü,37.887,41.132,452157.0,Turkey,TUR
Kota Kinabalu,5.975,116.0725,452058.0,Malaysia,MYS
Katsushika-ku,35.7333,139.85,451772.0,Japan,JPN
Madison,43.0822,-89.393,451652.0,United States,USA
Santiago de Cuba,20.0217,-75.8294,451528.0,Cuba,CUB
Udaipur,24.58,73.68,451100.0,India,IND
Kursk,51.7167,36.1833,450977.0,Russia,RUS
Mogi das Cruzes,-23.5228,-46.1878,450785.0,Brazil,BRA
Stavropol,45.05,41.9833,450680.0,Russia,RUS
General Trias,14.38,120.88,450583.0,Philippines,PHL
Sirājganj,24.45,89.75,450000.0,Bangladesh,BGD
Boise,43.6005,-116.2308,449776.0,United States,USA
Bonita Springs,26.3558,-81.7859,449527.0,United States,USA
Mariupol,47.0958,37.5494,449498.0,Ukraine,UKR
Eslāmshahr,35.5317,51.2247,448129.0,Iran,IRN
Piraeus,37.943,23.6469,448051.0,Greece,GRC
Barcelona,10.1403,-64.6833,448016.0,Venezuela,VEN
Tanbei,35.088,112.951,447701.0,China,CHN
Zürich,47.3744,8.5411,447082.0,Switzerland,CHE
Pingquan,41.0042,118.6848,446939.0,China,CHN
Ado-Ekiti,7.6211,5.2214,446749.0,Nigeria,NGA
Baisha,29.4896,119.337,446000.0,China,CHN
Batman,37.887,41.132,445874.0,Turkey,TUR
Yongji,34.867,110.448,444724.0,China,CHN
Esenler,41.0339,28.8903,444561.0,Turkey,TUR
Rodriguez,14.72,121.12,443954.0,Philippines,PHL
Ensenada,31.8578,-116.6058,443807.0,Mexico,MEX
Danjiangkou,32.5401,111.5131,443755.0,China,CHN
Chauddagram,23.2283,91.3133,443648.0,Bangladesh,BGD
Kahramanmaraş,37.5833,36.9333,443575.0,Turkey,TUR
San Nicolás de los Garza,25.75,-100.2833,443273.0,Mexico,MEX
Taoyuan District,24.9913,121.3143,443273.0,Taiwan,TWN
Ndjili,-4.4089,15.3775,442138.0,Congo (Kinshasa),COD
Mathura,27.4924,77.6737,441894.0,India,IND
Pasay City,14.55,121.0,440656.0,Philippines,PHL
Ning’an,44.341,129.483,440000.0,China,CHN
Halifax,44.6475,-63.5906,439819.0,Canada,CAN
Fujisawa,35.35,139.4667,439728.0,Japan,JPN
Ulan-Ude,51.8333,107.6,439128.0,Russia,RUS
Denton,33.2175,-97.1418,438492.0,United States,USA
Laval,45.5833,-73.75,438366.0,Canada,CAN
Jinchang,38.5214,102.188,438026.0,China,CHN
Oakland,37.7904,-122.2166,437825.0,United States,USA
Springfield,42.1155,-72.5395,437752.0,United States,USA
Guangming,45.3357,122.7765,437559.0,China,CHN
Augusta,33.3645,-82.0708,437257.0,United States,USA
Kâğıthane,41.0719,28.9664,437026.0,Turkey,TUR
Sunch’ŏn,39.4167,125.9333,437000.0,"Korea, North",PRK
Sāngli,16.853,74.583,436639.0,India,IND
Avcılar,40.9792,28.7214,435625.0,Turkey,TUR
Jeju,33.513,126.523,435413.0,"Korea, South",KOR
Zhuangyuan,37.3056,120.829,435405.0,China,CHN
Davangere,14.4666,75.9242,435125.0,India,IND
Machida,35.5542,139.4431,434414.0,Japan,JPN
Sanghar,26.0442,68.9536,434087.0,Pakistan,PAK
Al Marāghah,26.7,31.6,432678.0,Egypt,EGY
Bandung,-6.912,107.6097,432557.0,Indonesia,IDN
Kissimmee,28.3041,-81.4169,431618.0,United States,USA
Calicut,11.2588,75.7804,431560.0,India,IND
Kenitra,34.25,-6.5833,431282.0,Morocco,MAR
Windhoek,-22.57,17.0836,431000.0,Namibia,NAM
Huili Chengguanzhen,26.6333,102.25,430066.0,China,CHN
Sidi Bouzid,35.0381,9.4858,429912.0,Tunisia,TUN
Bārāmati,18.15,74.58,429600.0,India,IND
Ţanţā,30.7833,31.0,429503.0,Egypt,EGY
Ismailia,30.5833,32.2667,429465.0,Egypt,EGY
Cusco,-13.525,-71.9722,428450.0,Peru,PER
Veracruz,19.1903,-96.1533,428323.0,Mexico,MEX
Sokoto,13.0622,5.2339,427760.0,Nigeria,NGA
Winston-Salem,36.1029,-80.261,427706.0,United States,USA
Kashiwa,35.8676,139.9758,427603.0,Japan,JPN
Al Bājūr,30.4333,31.0569,427017.0,Egypt,EGY
Xunyang,32.8341,109.3653,426677.0,China,CHN
Malatya,38.3486,38.3194,426381.0,Turkey,TUR
Yan’an Beilu,44.0144,87.2674,426253.0,China,CHN
Mothīhāri,26.65,84.9167,426158.0,India,IND
Aomori,40.8228,140.7469,425962.0,Japan,JPN
Akola,20.7,77.0,425817.0,India,IND
Mandaluyong City,14.58,121.03,425758.0,Philippines,PHL
Aves,41.44,-8.3,425411.0,Portugal,PRT
Sihŭng,37.3799,126.8029,425184.0,"Korea, South",KOR
Burco,9.5279,45.5345,425000.0,Somalia,SOM
Tver,56.8625,35.9242,424969.0,Russia,RUS
Xalapa,19.54,-96.9275,424755.0,Mexico,MEX
Buenaventura,3.8772,-77.0267,423927.0,Colombia,COL
London,42.9836,-81.2497,423369.0,Canada,CAN
Piracicaba,-22.7253,-47.6492,423323.0,Brazil,BRA
Yogyakarta,-7.8014,110.3644,422732.0,Indonesia,IDN
Toyota,35.0824,137.1563,422106.0,Japan,JPN
Daloa,6.8833,-6.45,421871.0,Côte d’Ivoire,CIV
Agadir,30.4333,-9.6,421844.0,Morocco,MAR
Elazığ,38.6744,39.2228,421726.0,Turkey,TUR
Uijeongbu,37.7486,127.0389,421579.0,"Korea, South",KOR
Hpa-An,16.8906,97.6333,421525.0,Burma,MMR
Rahimyar Khan,28.42,70.3,420419.0,Pakistan,PAK
Ugep,5.8,8.0833,420000.0,Nigeria,NGA
Hailin,44.594,129.38,420000.0,China,CHN
Mishan,45.5298,131.8466,420000.0,China,CHN
Sarajevo,43.8564,18.4131,419957.0,Bosnia and Herzegovina,BIH
Seremban,2.7222,101.9417,419536.0,Malaysia,MYS
Zhengjiatun,43.5183,123.5027,419529.0,China,CHN
Lecheng,25.1333,113.3333,419500.0,China,CHN
Campina Grande,-7.2306,-35.8811,419379.0,Brazil,BRA
Xicheng,23.3667,103.15,419314.0,China,CHN
Pencheng,29.676,115.681,419047.0,China,CHN
Kowloon City,22.3282,114.1916,418732.0,Hong Kong,HKG
Tirana,41.3289,19.8178,418495.0,Albania,ALB
Kushtia,23.9101,89.1231,418312.0,Bangladesh,BGD
El Obeid,13.1833,30.2167,418280.0,Sudan,SDN
Mauá,-23.6678,-46.4608,418261.0,Brazil,BRA
Magnitogorsk,53.3833,59.0333,418241.0,Russia,RUS
Da’an,45.5,124.2833,418232.0,China,CHN
Luhansk,48.5678,39.3031,417990.0,Ukraine,UKR
Xingren,25.435,105.1862,417919.0,China,CHN
Takamatsu,34.35,134.05,417814.0,Japan,JPN
Arusha,-3.3667,36.6833,416442.0,Tanzania,TZA
Fenyang,37.2616,111.7699,416212.0,China,CHN
Ajdābiyā,30.7556,20.2253,416000.0,Libya,LBY
Callao,-12.0522,-77.1392,415888.0,Peru,PER
Awsīm,30.1167,31.1333,415735.0,Egypt,EGY
Shinagawa-ku,35.6,139.7333,415729.0,Japan,JPN
Paju,37.8667,126.8,415345.0,"Korea, South",KOR
Santa Rosa,14.32,121.12,414812.0,Philippines,PHL
Bettiah,26.8014,84.5028,414453.0,India,IND
Jhang City,31.2694,72.3161,414131.0,Pakistan,PAK
Altındağ,39.9636,32.9033,413994.0,Turkey,TUR
Talā,30.6801,30.9438,413839.0,Egypt,EGY
Stockton,37.9765,-121.3109,413637.0,United States,USA
Ţalkhā,31.0547,31.3756,413584.0,Egypt,EGY
Boa Vista,2.8194,-60.6714,413486.0,Brazil,BRA
Banjul,13.4531,-16.5775,413397.0,"Gambia, The",GMB
Jayapura,-2.533,140.717,413283.0,Indonesia,IDN
Toyama,36.6959,137.2137,413028.0,Japan,JPN
Sanandaj,35.3114,46.9961,412767.0,Iran,IRN
Khon Kaen,16.4333,102.8333,412758.0,Thailand,THA
Fangting,31.127,104.167,412758.0,China,CHN
Linghai,41.1667,121.35,412513.0,China,CHN
Shorāpur,16.52,76.76,412291.0,India,IND
Koumassi,5.3,-3.95,412282.0,Côte d’Ivoire,CIV
Betim,-19.9678,-44.1978,411859.0,Brazil,BRA
Sochi,43.5853,39.7203,411524.0,Russia,RUS
Tinnevelly,8.7136,77.7567,411298.0,India,IND
Pasto,1.2078,-77.2772,410835.0,Colombia,COL
Syracuse,43.0407,-76.1437,410732.0,United States,USA
Bellary,15.1,76.9167,410445.0,India,IND
Bhāgalpur,25.25,87.0,410210.0,India,IND
Kisumu,-0.0833,34.7667,409928.0,Kenya,KEN
Zhangjiakou Shi Xuanhua Qu,40.5944,115.0243,409745.0,China,CHN
Maringá,-23.4,-51.9167,409657.0,Brazil,BRA
Kocasinan,38.7333,35.4833,409005.0,Turkey,TUR
Mataram,-8.5833,116.1167,408900.0,Indonesia,IDN
Shashemenē,7.2,38.6,408368.0,Ethiopia,ETH
Zaria,11.0667,7.7,408198.0,Nigeria,NGA
Kumi,36.1195,128.3444,407880.0,"Korea, South",KOR
Wanyuan,31.9833,107.9667,407594.0,China,CHN
Biñan,14.33,121.08,407437.0,Philippines,PHL
Chattanooga,35.066,-85.2481,406849.0,United States,USA
Jiexiu,37.027,111.917,406517.0,China,CHN
Bağlar,37.9167,40.1833,406471.0,Turkey,TUR
Padiāla,30.802,76.593,406192.0,India,IND
Đà Lạt,11.9417,108.4383,406105.0,Vietnam,VNM
Sham Shui Po,22.3307,114.1622,405869.0,Hong Kong,HKG
Santa Fe,-31.6333,-60.7,405683.0,Argentina,ARG
Delhi Cantonment,28.6,77.1333,405633.0,India,IND
Cumaná,10.4564,-64.1675,405626.0,Venezuela,VEN
Barura,23.375,91.0583,405118.0,Bangladesh,BGD
Yüreğir,36.9981,35.3439,404726.0,Turkey,TUR
Nagasaki,32.7447,129.8736,404656.0,Japan,JPN
Mardan,34.2012,72.0258,404436.0,Pakistan,PAK
Hat Yai,7.0167,100.4667,404044.0,Thailand,THA
Salt Lake City,22.61,88.4,403316.0,India,IND
Qazvīn,36.2894,50.0086,402748.0,Iran,IRN
Etāwa,24.18,78.2,402678.0,India,IND
Lancaster,40.042,-76.3012,402476.0,United States,USA
Sonīpat,28.99,77.022,402000.0,India,IND
Jundiaí,-23.1858,-46.8839,401896.0,Brazil,BRA
Ivanovo,56.9967,40.9819,401505.0,Russia,RUS
Greenville,34.8354,-82.3646,401443.0,United States,USA
Toyonaka,34.7833,135.4667,401233.0,Japan,JPN
Bogra,24.85,89.3667,400983.0,Bangladesh,BGD
Öskemen,49.9833,82.6167,400142.0,Kazakhstan,KAZ
Gifu,35.4232,136.7608,400118.0,Japan,JPN
Maungdaw,20.8167,92.3667,400000.0,Burma,MMR
Jiangjiafan,31.0238,111.9709,400000.0,China,CHN
Durham,35.9792,-78.9022,399616.0,United States,USA
Bryansk,53.2333,34.3667,399579.0,Russia,RUS
Dera Ghazi Khan,30.0331,70.64,399064.0,Pakistan,PAK
Anápolis,-16.3339,-48.9519,398817.0,Brazil,BRA
Pensacola,30.4413,-87.1911,398813.0,United States,USA
Miyazaki,31.9078,131.4203,397476.0,Japan,JPN
Quilon,8.8932,76.6141,397419.0,India,IND
Mulangodi,9.0,76.6167,397419.0,India,IND
Munro Turuttu,9.0,76.6167,397419.0,India,IND
Hirakata,34.8167,135.65,396694.0,Japan,JPN
Sandakan,5.8333,118.1167,396290.0,Malaysia,MYS
Szczecin,53.4325,14.5481,396168.0,Poland,POL
Brno,49.1925,16.6083,396101.0,Czechia,CZE
Surgut,61.25,73.4333,395900.0,Russia,RUS
Hejin,35.596,110.712,395527.0,China,CHN
Fayetteville,36.0714,-94.1661,394650.0,United States,USA
Betsiboka,-16.95,46.83,394561.0,Madagascar,MDG
Thiès,14.7833,-16.9167,394544.0,Senegal,SEN
Arlington,32.6998,-97.125,393469.0,United States,USA
Al Jahrā’,29.35,47.6833,393432.0,Kuwait,KWT
Kaunas,54.8972,23.8861,393397.0,Lithuania,LTU
Thanh Hóa,19.8075,105.7764,393294.0,Vietnam,VNM
Diadema,-23.6861,-46.6106,393237.0,Brazil,BRA
Lobito,-12.3667,13.5333,393079.0,Angola,AGO
Saurimo,-9.65,20.4,393000.0,Angola,AGO
Yola,9.23,12.46,392854.0,Nigeria,NGA
Zhugang,28.1358,121.2264,392800.0,China,CHN
Tāngāil,24.2644,89.9181,392300.0,Bangladesh,BGD
Nha Trang,12.245,109.1917,392279.0,Vietnam,VNM
Khayelitsha,-34.0403,18.6778,391749.0,South Africa,ZAF
Ad Dīwānīyah,31.9892,44.9247,391600.0,Iraq,IRQ
Nnewi,6.0167,6.9167,391227.0,Nigeria,NGA
Hancheng,35.4667,110.4333,391164.0,China,CHN
San-Pédro,4.75,-6.6333,390654.0,Côte d’Ivoire,CIV
Gujrat,32.5739,74.0789,390533.0,Pakistan,PAK
Yokosuka,35.2813,139.6721,390275.0,Japan,JPN
Tieli,46.95,128.05,390000.0,China,CHN
Asyūţ,27.1833,31.1667,389307.0,Egypt,EGY
Gwoza,11.0861,13.6914,388600.0,Nigeria,NGA
Sampaloc,14.6031,121.0022,388305.0,Philippines,PHL
Saki,8.6667,3.4,388225.0,Nigeria,NGA
Bologna,44.4939,11.3428,387971.0,Italy,ITA
Aqtöbe,50.2836,57.2297,387807.0,Kazakhstan,KAZ
Cilegon,-6.0027,106.0112,387543.0,Indonesia,IDN
Uvinza,-5.1069,30.3839,387442.0,Tanzania,TZA
Aurora,39.7083,-104.7237,387349.0,United States,USA
Carapicuíba,-23.5192,-46.8358,387121.0,Brazil,BRA
Ḩafr al Bāţin,28.4342,45.9636,387096.0,Saudi Arabia,SAU
Zanjān,36.6789,48.5056,386851.0,Iran,IRN
Petrolina,-9.3825,-40.5022,386786.0,Brazil,BRA
Bairia,25.7583,84.1489,386745.0,India,IND
Oyo,7.85,3.933,386723.0,Nigeria,NGA
Taytay,14.5692,121.1325,386451.0,Philippines,PHL
Kisenzi,-4.4094,15.3425,386151.0,Congo (Kinshasa),COD
Bhātpāra,22.87,88.41,386019.0,India,IND
Kūkatpalli,17.4849,78.4138,385821.0,India,IND
Manisa,38.6144,27.4292,385452.0,Turkey,TUR
Sirūr,18.83,74.38,385414.0,India,IND
Tarlac City,15.4869,120.59,385398.0,Philippines,PHL
Okazaki,34.9543,137.1744,385376.0,Japan,JPN
Lianzhou,24.781,112.377,384700.0,China,CHN
Ceel Baraf,3.2073,45.7587,384630.0,Somalia,SOM
Yidu,30.378,111.45,384598.0,China,CHN
Lingxi,27.5036,120.3975,384390.0,China,CHN
Ilesa,7.6167,4.7167,384334.0,Nigeria,NGA
Kākināda,16.9661,82.255,384182.0,India,IND
Savar,23.85,90.26,384093.0,Bangladesh,BGD
Nuevo Laredo,27.4861,-99.5069,384033.0,Mexico,MEX
Bawshar,23.5333,58.3833,383257.0,Oman,OMN
Christchurch,-43.531,172.6365,383200.0,New Zealand,NZL
Gusau,12.15,6.6667,383162.0,Nigeria,NGA
Zêtang,29.238,91.771,382610.0,China,CHN
Palu,-0.895,119.8594,381572.0,Indonesia,IDN
Canberra,-35.2931,149.1269,381488.0,Australia,AUS
Minamisuita,34.7594,135.5169,381238.0,Japan,JPN
Tétouan,35.5667,-5.3667,380787.0,Morocco,MAR
Malabon,14.66,120.96,380522.0,Philippines,PHL
Neiva,2.9345,-75.2809,380019.0,Colombia,COL
Novi Sad,45.2542,19.8425,380000.0,Serbia,SRB
Huancayo,-12.0667,-75.2167,378203.0,Peru,PER
Celaya,20.5222,-100.8122,378143.0,Mexico,MEX
Ichinomiya,35.3039,136.8031,378108.0,Japan,JPN
Caruaru,-8.2828,-35.9758,378052.0,Brazil,BRA
Sintra,38.7992,-9.3883,377835.0,Portugal,PRT
Hatay,36.2025,36.1606,377793.0,Turkey,TUR
Iquitos,-3.75,-73.25,377609.0,Peru,PER
Pānihāti,22.69,88.37,377347.0,India,IND
Cainta,14.57,121.12,376933.0,Philippines,PHL
Helixi,30.6267,118.9861,376857.0,China,CHN
Mamou,10.3833,-12.0833,376269.0,Guinea,GIN
Manukau City,-37.0,174.885,375600.0,New Zealand,NZL
Itaquaquecetuba,-23.4864,-46.3486,375011.0,Brazil,BRA
Cantonment,31.5167,74.3833,374872.0,Pakistan,PAK
Rohtak,28.8909,76.5796,374292.0,India,IND
Gaziantep,37.0628,37.3792,374290.0,Turkey,TUR
Māler Kotla,30.5167,75.8833,374000.0,India,IND
Bhawana,31.5661,72.6461,373841.0,Pakistan,PAK
Khorramābād,33.4875,48.3561,373416.0,Iran,IRN
Lipa City,13.9411,121.1622,372931.0,Philippines,PHL
Butuan,8.948,125.543,372910.0,Philippines,PHL
Dikirnis,31.0883,31.5969,372871.0,Egypt,EGY
Stoke-on-Trent,53.0,-2.1833,372775.0,United Kingdom,GBR
Takasaki,36.3219,139.0033,372639.0,Japan,JPN
Malakwal,32.5531,73.2067,371869.0,Pakistan,PAK
Toyohashi,34.7692,137.3915,371507.0,Japan,JPN
Chitungwiza,-17.9939,31.0481,371244.0,Zimbabwe,ZWE
Gebze,40.8,29.4333,371000.0,Turkey,TUR
Cibinong,-6.485,106.842,370928.0,Indonesia,IDN
Lengshuijiang,27.686,111.436,370300.0,China,CHN
Panshi,42.95,126.0667,370238.0,China,CHN
Az Zubayr,30.3833,47.7,370000.0,Iraq,IRQ
Oxnard,34.1964,-119.1815,369962.0,United States,USA
Vinnytsia,49.2333,28.4833,369739.0,Ukraine,UKR
Indio,33.7346,-116.2346,369654.0,United States,USA
Bharatpur,27.6833,84.4333,369377.0,Nepal,NPL
Petare,10.4833,-66.8167,369000.0,Venezuela,VEN
Nagano,36.6486,138.1947,367184.0,Japan,JPN
Huichang,34.9073,112.7914,367113.0,China,CHN
Keelung,25.1333,121.7333,367107.0,Taiwan,TWN
Bauru,-22.315,-49.0608,366992.0,Brazil,BRA
La Florida,-33.5333,-70.5833,366916.0,Chile,CHL
Nicolás Romero,19.5833,-99.3667,366602.0,Mexico,MEX
Jinshan,25.1462,102.0723,366512.0,China,CHN
Baguio City,16.4119,120.5933,366358.0,Philippines,PHL
Scranton,41.4044,-75.6649,366334.0,United States,USA
Bochum,51.4819,7.2158,365742.0,Germany,DEU
Sivas,39.75,37.0167,365274.0,Turkey,TUR
Kolga,22.35,82.68,365253.0,India,IND
Korba,22.3458,82.6963,365253.0,India,IND
Qardho,9.5,49.0833,365000.0,Somalia,SOM
Rio Branco,-9.9747,-67.81,364756.0,Brazil,BRA
Tecámac,19.7131,-98.9683,364579.0,Mexico,MEX
Alanya,36.55,32.0,364180.0,Turkey,TUR
Mandaue City,10.33,123.93,364116.0,Philippines,PHL
Victorville,34.5277,-117.3536,364015.0,United States,USA
Kocaeli,40.7625,29.9175,363416.0,Turkey,TUR
Warri,5.5167,5.75,363382.0,Nigeria,NGA
Victoria,48.4283,-123.3647,363222.0,Canada,CAN
Wŏnsan,39.1475,127.4461,363127.0,"Korea, North",PRK
Iligan,8.23,124.25,363115.0,Philippines,PHL
Anguo,38.418,115.327,363091.0,China,CHN
K’ebrī Dehar,6.7333,44.2667,363000.0,Ethiopia,ETH
Coventry,52.4081,-1.5106,362690.0,United Kingdom,GBR
Kayapınar,37.95,40.1667,362407.0,Turkey,TUR
Trenton,40.2237,-74.7641,362179.0,United States,USA
Cuenca,-2.8974,-79.0045,361524.0,Ecuador,ECU
Blumenau,-26.9333,-49.05,361261.0,Brazil,BRA
Nanqiao,30.9167,121.4547,361185.0,China,CHN
Florence,43.7714,11.2542,360930.0,Italy,ITA
Buurhakaba,2.7833,44.0833,360795.0,Somalia,SOM
Bengkulu,-3.7956,102.2592,360495.0,Indonesia,IDN
Malmö,55.6058,13.0358,360249.0,Sweden,SWE
Wudalianchi,48.75,126.1667,360000.0,China,CHN
Shuanghe,30.3746,106.7903,360000.0,China,CHN
Pétion-Ville,18.5128,-72.2864,359615.0,Haiti,HTI
Utrecht,52.0908,5.1217,359370.0,Netherlands,NLD
Sīkar,27.62,75.15,359293.0,India,IND
Umuahia,5.5333,7.4833,359230.0,Nigeria,NGA
Vitsyebsk,55.1917,30.2056,359148.0,Belarus,BLR
Palmira,3.5833,-76.25,358895.0,Colombia,COL
Wuppertal,51.2667,7.1833,358876.0,Germany,DEU
Hrodna,53.6667,23.8333,358717.0,Belarus,BLR
Ash Shuhadā’,30.6039,30.9021,358486.0,Egypt,EGY
Karūr,10.9601,78.0766,358468.0,India,IND
Ponta Grossa,-25.0994,-50.1583,358367.0,Brazil,BRA
Sasarām,24.95,84.03,358283.0,India,IND
Taraz,42.9,71.3667,357795.0,Kazakhstan,KAZ
Cubal,-13.0333,14.25,357618.0,Angola,AGO
Luena,-11.7918,19.9062,357413.0,Angola,AGO
Karnāl,29.686,76.989,357334.0,India,IND
Yong’an,25.942,117.365,357000.0,China,CHN
Konak,38.4189,27.1285,356563.0,Turkey,TUR
Minatitlán,17.9833,-94.55,356020.0,Mexico,MEX
Linxia Chengguanzhen,35.6047,103.2422,355968.0,China,CHN
Brahmapur,19.315,84.7941,355823.0,India,IND
Chānda,19.95,79.3,355739.0,India,IND
Caucaia,-3.7167,-38.65,355679.0,Brazil,BRA
Cuito,-12.3833,16.9333,355423.0,Angola,AGO
Cabuyao,14.275,121.125,355330.0,Philippines,PHL
Hongzhai,34.9857,104.5446,355037.0,China,CHN
Gedaref,14.0333,35.3833,354927.0,Sudan,SDN
San Fernando,15.03,120.68,354666.0,Philippines,PHL
Kawagoe,35.9251,139.4858,354598.0,Japan,JPN
Modesto,37.6375,-121.0028,354183.0,United States,USA
Nizhniy Tagil,57.9167,59.9667,353950.0,Russia,RUS
Pokhara,28.2083,83.9889,353841.0,Nepal,NPL
Villahermosa,17.9892,-92.9281,353577.0,Mexico,MEX
Van,38.4942,43.38,353419.0,Turkey,TUR
Mahilyow,53.9167,30.35,353338.0,Belarus,BLR
Wakayama,34.2333,135.1667,353299.0,Japan,JPN
Osh,40.53,72.8,353080.0,Kyrgyzstan,KGZ
Kita-ku,35.75,139.7333,353058.0,Japan,JPN
Gimpo,37.7,126.6,352683.0,"Korea, South",KOR
Corrientes,-27.4833,-58.8167,352646.0,Argentina,ARG
Franca,-20.5389,-47.4008,352537.0,Brazil,BRA
Thari Mir Wah,27.0683,68.6023,352491.0,Pakistan,PAK
Nara,34.6844,135.805,352377.0,Japan,JPN
Vladimir,56.1286,40.4058,352347.0,Russia,RUS
Yakeshi,49.286,120.712,352173.0,China,CHN
Nam Định,20.42,106.1683,352108.0,Vietnam,VNM
Sinŭiju,40.1,124.4,352000.0,"Korea, North",PRK
Oruro,-17.9667,-67.1167,351802.0,Bolivia,BOL
Cabimas,10.4,-71.45,351735.0,Venezuela,VEN
Arkhangelsk,64.5333,40.5333,351488.0,Russia,RUS
Batangas,13.83,121.0,351437.0,Philippines,PHL
Ibb,13.9667,44.1667,350864.0,Yemen,YEM
Ahmadnagar,19.08,74.73,350859.0,India,IND
Sarai Alamgir,32.9,73.75,350288.0,Pakistan,PAK
Semey,50.4333,80.2667,350201.0,Kazakhstan,KAZ
Holguín,20.8869,-76.2592,350191.0,Cuba,CUB
Tungi,23.9,90.41,350000.0,Bangladesh,BGD
Yingmen,39.9487,97.4395,350000.0,China,CHN
Sawrān,36.6606,44.5508,350000.0,Iraq,IRQ
Chita,52.05,113.4667,349983.0,Russia,RUS
Olinda,-8.0,-34.8833,349976.0,Brazil,BRA
Praia Grande,-24.0061,-46.4028,349935.0,Brazil,BRA
Dāsarhalli,13.0465,77.513,349720.0,India,IND
Huntsville,34.6981,-86.6412,349482.0,United States,USA
Shinjuku,35.7014,139.7097,349385.0,Japan,JPN
Alicante,38.3453,-0.4831,349282.0,Spain,ESP
Cariacica,-20.2639,-40.42,348738.0,Brazil,BRA
Varna,43.2167,27.9167,348594.0,Bulgaria,BGR
Honolulu,21.3294,-157.846,348547.0,United States,USA
Antofagasta,-23.65,-70.4,348517.0,Chile,CHL
Ambon,-3.7,128.1667,348225.0,Indonesia,IDN
Nice,43.7034,7.2663,348085.0,France,FRA
Cascavel,-24.9556,-53.4553,348051.0,Brazil,BRA
Pamukkale,37.9167,29.1167,347926.0,Turkey,TUR
Canoas,-29.92,-51.18,347657.0,Brazil,BRA
Takatsuki,34.8461,135.6175,347496.0,Japan,JPN
António Enes,-16.2333,39.9167,347175.0,Mozambique,MOZ
Greensboro,36.0956,-79.8271,347130.0,United States,USA
Anaheim,33.839,-117.8574,347111.0,United States,USA
Plovdiv,42.15,24.75,346893.0,Bulgaria,BGR
Central Coast,-33.3,151.2,346596.0,Australia,AUS
Karşıyaka,38.4594,27.1153,346264.0,Turkey,TUR
Shāhjānpur,27.88,79.91,346103.0,India,IND
Gwagwalada,8.9392,7.0758,346000.0,Nigeria,NGA
Alamādi,13.1097,80.0972,345996.0,India,IND
Āvadi,13.1147,80.1098,345996.0,India,IND
Tanch’ŏn,40.458,128.911,345876.0,"Korea, North",PRK
Khānāpur,15.6394,74.5083,345839.0,India,IND
Wad Medani,14.4,33.5167,345290.0,Sudan,SDN
Kūstī,13.1667,32.6667,345068.0,Sudan,SDN
Belfast,54.5964,-5.93,345006.0,United Kingdom,GBR
Hosūr,12.7409,77.8253,345000.0,India,IND
Cuddapah,14.47,78.82,344893.0,India,IND
Nakano,35.7074,139.6638,344880.0,Japan,JPN
Ōtsu,35.0167,135.85,343991.0,Japan,JPN
Maseru,-29.31,27.48,343541.0,Lesotho,LSO
Makiivka,48.0556,37.9611,343158.0,Ukraine,UKR
Pavlodar,52.3,76.95,343091.0,Kazakhstan,KAZ
Chon Buri,13.3611,100.985,342959.0,Thailand,THA
Naga City,13.6244,123.1864,342769.0,Philippines,PHL
Sarıyer,41.1669,29.0572,342503.0,Turkey,TUR
Brest,52.1347,23.6569,342461.0,Belarus,BLR
Meram,37.8364,32.4383,342315.0,Turkey,TUR
Gómez Palacio,25.5611,-103.4983,342286.0,Mexico,MEX
Paulista,-7.9408,-34.8728,342167.0,Brazil,BRA
Rājahmundry,16.98,81.78,341831.0,India,IND
Koshigaya,35.8911,139.7909,341784.0,Japan,JPN
Vũng Tàu,10.3833,107.1167,341552.0,Vietnam,VNM
Jeonju,35.8167,127.15,341545.0,"Korea, South",KOR
Alwar,27.5498,76.6355,341422.0,India,IND
Tokorozawa,35.7996,139.4686,341289.0,Japan,JPN
Sumqayıt,40.5897,49.6686,341200.0,Azerbaijan,AZE
Vitória da Conquista,-14.8658,-40.8389,341128.0,Brazil,BRA
Simferopol,44.9519,34.1022,340540.0,Ukraine,UKR
Buôn Ma Thuột,12.6667,108.05,340000.0,Vietnam,VNM
Serekunda,13.4333,-16.6667,340000.0,"Gambia, The",GMB
Islip,40.7385,-73.1888,339123.0,United States,USA
Cuernavaca,18.9186,-99.2342,338650.0,Mexico,MEX
Markham,43.8767,-79.2633,338503.0,Canada,CAN
Bielefeld,52.0211,8.5347,338332.0,Germany,DEU
Uberaba,-19.7478,-47.9319,337846.0,Brazil,BRA
Jitpur,27.6666,85.3333,337785.0,Nepal,NPL
Bydgoszcz,53.1219,18.0003,337666.0,Poland,POL
Tangdong,25.973,113.231,337495.0,China,CHN
Chinju,35.2,128.0833,337230.0,"Korea, South",KOR
Corpus Christi,27.7254,-97.3767,337230.0,United States,USA
Fort Wayne,41.0888,-85.1436,337163.0,United States,USA
Reading,51.4542,-0.9731,337108.0,United Kingdom,GBR
Randburg,-26.0936,28.0064,337053.0,South Africa,ZAF
Matadi,-5.8167,13.4833,337000.0,Congo (Kinshasa),COD
Bonn,50.7333,7.1,336465.0,Germany,DEU
Iwaki,37.0505,140.8877,336111.0,Japan,JPN
Oshawa,43.9,-78.85,335949.0,Canada,CAN
Shah Latif Town,24.8806,67.1625,335823.0,Pakistan,PAK
Sambalpur,21.47,83.97,335761.0,India,IND
Fort Collins,40.5477,-105.0656,335398.0,United States,USA
Jackson,32.3157,-90.2125,335171.0,United States,USA
Yingzhong,32.237,119.815,334977.0,China,CHN
Santo Domingo de los Colorados,-0.2542,-79.1719,334826.0,Ecuador,ECU
Uruapan,19.4208,-102.0628,334749.0,Mexico,MEX
Lublin,51.25,22.5667,334681.0,Poland,POL
Licheng,24.5,110.4,334527.0,China,CHN
Tampere,61.4981,23.76,334112.0,Finland,FIN
Belgorod,50.6,36.6,333931.0,Russia,RUS
Muzaffarpur,26.1225,85.3906,333200.0,India,IND
Viña del Mar,-33.0244,-71.5517,332875.0,Chile,CHL
Tepic,21.5083,-104.8931,332863.0,Mexico,MEX
Khipro,25.823,69.377,332833.0,Pakistan,PAK
Hangu,39.232,117.777,332793.0,China,CHN
Asan,36.7833,126.9833,332790.0,"Korea, South",KOR
Chak Jhumra,31.5667,73.1833,332461.0,Pakistan,PAK
Myrtle Beach,33.7094,-78.8844,332181.0,United States,USA
Soledad de Graciano Sánchez,22.1833,-100.9333,332072.0,Mexico,MEX
Şalālah,17.0197,54.0897,331949.0,Oman,OMN
Santarém,-2.43,-54.72,331937.0,Brazil,BRA
Yanbu,24.0883,38.0582,331916.0,Saudi Arabia,SAU
Maebashi,36.3895,139.0634,331849.0,Japan,JPN
Kaluga,54.55,36.2833,331842.0,Russia,RUS
Dumai,1.6667,101.45,331832.0,Indonesia,IDN
Beylikdüzü,41.0011,28.6419,331525.0,Turkey,TUR
Gəncə,40.6828,46.3606,331400.0,Azerbaijan,AZE
Asahikawa,43.7667,142.3667,331392.0,Japan,JPN
Kendari,-3.9907,122.5086,331013.0,Indonesia,IDN
Wŏnju,37.3417,127.9208,330854.0,"Korea, South",KOR
Birkat as Sab‘,30.6338,31.0848,330847.0,Egypt,EGY
Lafia,8.4917,8.5167,330712.0,Nigeria,NGA
Dahūk,36.8667,43.0,330600.0,Iraq,IRQ
Finglas,53.4597,-6.2181,330506.0,Ireland,IRL
Kāmārhāti,22.6686,88.3704,330211.0,India,IND
Thái Nguyên,21.6,105.85,330000.0,Vietnam,VNM
Bamiantong,44.9167,130.5167,330000.0,China,CHN
Nicosia,35.1725,33.365,330000.0,Cyprus,CYP
São Vicente,-23.9633,-46.3922,329844.0,Brazil,BRA
Ribeirão das Neves,-19.7669,-44.0869,329794.0,Brazil,BRA
Guédiawaye,14.7833,-17.4,329659.0,Senegal,SEN
Ciudad Obregón,27.4939,-109.9389,329404.0,Mexico,MEX
São José dos Pinhais,-25.535,-49.2058,329222.0,Brazil,BRA
Campīernagar,27.029,83.2668,329104.0,India,IND
Phatthaya,12.9357,100.889,328961.0,Thailand,THA
Fayetteville,35.085,-78.9772,328804.0,United States,USA
Debrecen,47.53,21.6392,328642.0,Hungary,HUN
Mirpur Mathelo,28.0167,69.5333,327821.0,Pakistan,PAK
Sultanbeyli,40.9683,29.2617,327798.0,Turkey,TUR
Bijāpur,16.83,75.71,327427.0,India,IND
Cabanatuan City,15.4908,120.9678,327325.0,Philippines,PHL
Tharād,24.3926,71.6248,327289.0,India,IND
Antioch,37.9787,-121.796,327216.0,United States,USA
Si Racha,13.174,100.93,327172.0,Thailand,THA
Salamanca,20.5703,-101.1972,327169.0,Mexico,MEX
Ratnāgiri,16.9944,73.3,327120.0,India,IND
Ulanhot,46.0722,122.0933,327081.0,China,CHN
Koriyama,37.4004,140.3597,327040.0,Japan,JPN
Yunzhong,39.8279,113.1,326849.0,China,CHN
Roodepoort,-26.1625,27.8725,326416.0,South Africa,ZAF
Volzhskiy,48.8056,44.7417,326055.0,Russia,RUS
Pucallpa,-8.3833,-74.55,326040.0,Peru,PER
San Pedro,14.3583,121.0583,326001.0,Philippines,PHL
Pelotas,-31.7719,-52.3425,325689.0,Brazil,BRA
Kōchi,33.5589,133.5314,325535.0,Japan,JPN
Rāmpur,28.8,79.0,325248.0,India,IND
Kuching,1.5575,110.3439,325132.0,Malaysia,MYS
Cotabato,7.22,124.25,325079.0,Philippines,PHL
Cimanggis,-6.3645,106.8591,324343.0,Indonesia,IDN
Gonaïves,19.4456,-72.6883,324043.0,Haiti,HTI
Nazrēt,8.5414,39.2689,324000.0,Ethiopia,ETH
Kikuyu,-1.25,36.6667,323881.0,Kenya,KEN
Córdoba,37.8845,-4.7796,323763.0,Spain,ESP
Kluang,2.0336,103.3194,323762.0,Malaysia,MYS
Mekele,13.4969,39.4769,323700.0,Ethiopia,ETH
Binxian,35.0542,108.0814,323256.0,China,CHN
Nantes,47.2181,-1.5528,323204.0,France,FRA
Vaughan,43.8333,-79.5,323103.0,Canada,CAN
Kaiyuan,23.7111,103.2461,323031.0,China,CHN
Vitória,-20.2889,-40.3083,322869.0,Brazil,BRA
Shimoga,13.9333,75.5667,322650.0,India,IND
Lansing,42.7142,-84.5601,322561.0,United States,USA
Uíge,-7.6167,15.05,322531.0,Angola,AGO
Hotan,37.1167,79.9167,322300.0,China,CHN
Camagüey,21.3839,-77.9075,321992.0,Cuba,CUB
Taourirt,34.4169,-2.885,321876.0,Morocco,MAR
San Salvador de Jujuy,-24.1833,-65.3,321789.0,Argentina,ARG
Kāshīpur,29.22,78.95,321623.0,India,IND
Thủ Dầu Một,10.9667,106.65,321607.0,Vietnam,VNM
Al Kūt,32.4907,45.8304,321521.0,Iraq,IRQ
Lexington,38.0423,-84.4587,321276.0,United States,USA
Sukabumi,-6.9181,106.9315,320970.0,Indonesia,IDN
Münster,51.9625,7.6256,320946.0,Germany,DEU
Menongue,-14.6556,17.6842,320914.0,Angola,AGO
Mobile,30.6782,-88.1162,320855.0,United States,USA
Godē,5.9527,43.5516,320782.0,Ethiopia,ETH
Okene,7.55,6.2333,320260.0,Nigeria,NGA
Jūnāgadh,21.5222,70.4579,320250.0,India,IND
